,RespondentID,Route ,Route - In/Out Bound,Left From,Left Other,Left St No,Left St Name,Left Nearest Intersection,Left Name,Final Destination,Destination-Other,Dest St No,Dest St Name,Dest Nearest Intersection ,Dest Name,Zipcode,confidence_left,lat_left,lng_left,confidence_dest,lat_dest,lng_dest,Route,Geocode_result_left,Geocode_result_dest,Left_Add_EDIT,lat_left_EDIT,lng_left_EDIT,Dest_Add_EDIT,lat_dest_EDIT,lng_dest_EDIT
0,4199326829,10- East Chattanooga,In Bound,Home,,3308,Campbell Street,Campbell & Glass,,Work,,308,Clio Avenue,38th St & Rossville Blvd,,37406,9,35.072721,-85.240472,9,35.0001552,-85.2919233,10- East Chattanooga,pass,pass,,,,,,
1,4206052159,10- East Chattanooga,In Bound,Home,,314,Riverside Drive,Riverside & Wilder,,Work,,,,,,37406,9,35.0760064,-85.2578878,,,,10- East Chattanooga,pass,insufficient_data,,,,,,
2,4206066684,10- East Chattanooga,In Bound,Home,,3211,Campbell Street,Stuart & Chamberlain,,University / College,,816,McCallie Avenue,3rd & Hampton,Erlanger,37406,9,35.0722836,-85.241944,9,35.0485516,-85.2895013,10- East Chattanooga,pass,pass,,,,,,
3,4209630869,21- Golden Gateway,Out Bound,Home,,,D. Drive,,,Work,,,B Street,,,37406,9,35.0407709,-85.2599537,9,35.0486973,-85.2902862,21- Golden Gateway,pass,pass,,,,,,
4,4209714464,8- Eastdale,Out Bound,Home,,,Tunnel Blvd,Tunnel Blvd & Shallowford,,Personal errands,,6227,Lee Hwy,,,37410,9,35.0380214,-85.2401626,9,35.0323689,-85.1846275,8- Eastdale,pass,pass,,,,,,
5,4210021492,1- Alton Park,In Bound,Home,,,West Main,Main & Cypress,"Howard, 25th St",Work,,25th,Howard,,,37402,9,35.0261,-85.309825,9,35.0265206,-85.3090937,1- Alton Park,pass,pass,,,,,,
6,4210049627,1- Alton Park,Out Bound,Home,,2459,5th Avenue,4th ave & Foust,,Work,,3188,Broad,W. 37th,,37407,9,35.0152797,-85.2802724,9,35.0265206,-85.3090937,1- Alton Park,pass,pass,,,,,,
7,4210067701,1- Alton Park,In Bound,Home,,4429,Fagan,,Wal-Mart & Bank,,,,,,,,9,35.0155113,-85.3764317,,,,1- Alton Park,pass,insufficient_data,,,,,,
8,4210354314,1- Alton Park,In Bound,Home,,1230,Grove Street Ct,Market St & 10th St,College Hills Courts,Work,,2301,East Third Street,,Kentucky Fried Chicken,37402,9,35.0429049,-85.3185582,9,35.0392079,-85.266752,1- Alton Park,pass,pass,,,,,,
9,4215237302,9- East Lake,In Bound,Home,,,,,East Lake Court,Personal errands,Career Center,,,,East Gate Shopping Center,,9,35.0127833,-85.2821192,9,35.0084556,-85.2151665,9- East Lake,pass,pass,,,,,,
10,4215249165,10- East Chattanooga,Out Bound,Work,,1000,Hixson Pike,Falmouth & Hixson Pike,Across from Tremont Tavern,Home,,1949,Northpoint Blvd,,Home Depot,37343,9,35.069547,-85.289513,9,35.1373608,-85.2435405,10- East Chattanooga,pass,pass,,,,,,
11,4215260812,4- Hamilton Place,In Bound,Personal errands,,800,McCallie,,Salvation Army,Social / restaurant,,,,,Aims Center,37405,9,35.0432631,-85.2954858,9,35.047488,-85.3179647,4- Hamilton Place,pass,pass,,,,,,
12,4215330903,4- Hamilton Place,In Bound,Home,,5536,Old Mission Rd,Old Mission & Brainerd Rd,Eastgate Town Center,Personal errands,,701,Market St,7th & Market St,1st Tenn Bank,37414,9,35.0084556,-85.2151665,9,35.048276,-85.3103009,4- Hamilton Place,pass,pass,,,,,,
13,4215355676,4- Hamilton Place,In Bound,Home,,2020,Gunbarrel Road,Shallowford & Gunbarrel,Walmart,Personal errands,,412,W. MLK Blvd,MLK & Boynton Dr,,37421,9,35.0301589,-85.1527709,9,35.0475438,-85.3168957,4- Hamilton Place,pass,pass,,,,,,
14,4215372861,4- Hamilton Place,Out Bound,Store,,,,,,Work,,,,,,,,,,,,,4- Hamilton Place,insufficient_data,insufficient_data,,,,,,
15,4215570303,4- Hamilton Place,Out Bound,Personal errands,,727,East 11th Street,11th & Peeples,Community Kitchen,Work,,,,,East Gate Library,37401,9,35.0405999,-85.2999564,9,35.0085682,-85.2113813,4- Hamilton Place,pass,pass,,,,,,
16,4215577569,4- Hamilton Place,Out Bound,Home,,,,,,Work,,,,,,37406,,,,,,,4- Hamilton Place,insufficient_data,insufficient_data,,,,,,
17,4215582385,4- Hamilton Place,Out Bound,Personal errands,,,,,Brown Academy Elementary,Store,,,,,Walmart,33401,9,35.0437196,-85.2992616,9,35.0301589,-85.1527709,4- Hamilton Place,pass,pass,,,,,,
18,4215588760,4- Hamilton Place,Out Bound,Home,,,,,,Store,,,,,,37403,,,,,,,4- Hamilton Place,insufficient_data,insufficient_data,,,,,,
19,4215595712,4- Hamilton Place,In Bound,Work,,,,,,Work,,2102,Kirby Avenue,S. Willard & Kirby Ave,,37404,,,,9,35.0303982,-85.2738976,4- Hamilton Place,insufficient_data,pass,,,,,,
20,4224050680,3- Enterprise South,Out Bound,Work,,,,,Amazon,Home,,2706,6th Avenue,,,37404,9,35.0690411,-85.1411325,9,35.0117219,-85.2806971,3- Enterprise South,pass,pass,,,,,,
21,4224069501,9- East Lake,In Bound,Home,,2103,Daisy,Dodds & Daisy,,Home,,8,Market Street,,,,9,35.0668905,-85.2543584,9,35.0602047,-85.3089821,9- East Lake,pass,pass,,,,,,
22,4224077756,9- East Lake,Out Bound,Home,,,E. Main,,Wheeler Homes,Home,,,35th Street,,Alton Park Villages,37403,9,34.9911728,-85.3035734,9,35.0066898,-85.3109914,9- East Lake,pass,pass,,,,,,
23,4224090296,6- East Brainerd,Out Bound,Home,,7356,Lee Hwy #37,Lee & Courage Way,Cedar Creek MHP,Home,,7356,Lee Hwy,Lee & Courage Way,Cedar Group MHP,37421,9,35.0543727,-85.1443713,9,35.0542853,-85.1452821,6- East Brainerd,pass,pass,,,,,,
24,4224107560,6- East Brainerd,Out Bound,Work,,,Gunbarrel,,Wilkins Research,Home,,255,Germantown Rd,Brainerd & Germantown,,37411,9,35.0223464,-85.1579513,9,35.0284073,-85.2441114,6- East Brainerd,pass,pass,,,,,,
25,4224162421,6- East Brainerd,Out Bound,Work,,,E. Brainerd,,,Home,,202,Timber Knoll,,,37421,5,35.0153686,-85.1119641,9,35.0162107,-85.1873595,6- East Brainerd,no_pass,pass,,,,,,
26,4224225821,6- East Brainerd,Out Bound,Store,,,,,,Work,,,Hamilton Place Blvd,,Acropolis,30736,,,,9,35.039782,-85.156113,6- East Brainerd,insufficient_data,pass,,,,,,
27,4224233703,6- East Brainerd,Out Bound,Home,,1201,Boynton Drive,Boynton & MLK,,Other,ODAR Building,,,,ODAR Building,37402,9,35.0452594,-85.3202049,9,35.0123946,-85.1895951,6- East Brainerd,pass,pass,,,,,,
28,4224241695,6- East Brainerd,Out Bound,Personal errands,,,,,Hamilton Place Mall,Store,,,,,Walmart,,9,35.0336912,-85.1585253,9,35.0301589,-85.1527709,6- East Brainerd,pass,pass,,,,,,
29,4224247689,6- East Brainerd,Out Bound,Store,,,,,Hamilton Place Mall,Personal errands,,,,,Walmart,,9,35.0336912,-85.1585253,9,35.0301589,-85.1527709,6- East Brainerd,pass,pass,,,,,,
30,4224254453,1- Alton Park,In Bound,Work,,,Amnicola Hwy,Amnicola & Riverside,America Fixtures,Social / restaurant,,,Lee Hwy,Lee Hwy & Shallowford,,30741,9,35.063282,-85.272236,9,35.0449042,-85.1624371,1- Alton Park,pass,pass,,,,,,
31,4224261251,1- Alton Park,Out Bound,Other,,,,6th & Market,,Home,,,Citico Ave Apt 201,,,37406,9,35.0496808,-85.3095494,9,35.0427425,-85.2569057,1- Alton Park,pass,pass,,,,,,
32,4241521702,14- Mocs Express,In Bound,University / College,,,,,,University / College,,,,,,37403,,,,,,,14- Mocs Express,insufficient_data,insufficient_data,,,,,,
33,4234123910,16- Northgate,In Bound,,,,,,,Social / restaurant,,,,,,,,,,,,,16- Northgate,insufficient_data,insufficient_data,,,,,,
34,4241535784,14- Mocs Express,In Bound,Work,,,,,"Stacy Town Center, UTC",Work,,,,,"Stagmaier Hall, UTC",37311,9,35.0445242,-85.30114,9,35.0452507,-85.2983505,14- Mocs Express,pass,pass,,,,,,
35,4241542120,14- Mocs Express,Out Bound,University / College,,,E 5th St,E 5th St & Palmetto St,University Center,Other,Parking lot,,,3rd & O'Neal,Engel Stadium,37416,9,35.047943,-85.2982972,9,35.0453668,-85.2863116,14- Mocs Express,pass,pass,,,,,,
36,4241548742,14- Mocs Express,Out Bound,Home,,1142,Pierce Ave,,McDonalds,University / College,,,,,Library,37403,9,35.0473656,-85.2852811,9,35.0443542,-85.3105651,14- Mocs Express,pass,pass,,,,,,
37,4241555013,4- Hamilton Place,Out Bound,Home,,,E 42nd,,,Home,,3021,Alton Park Blvd,,Market St & 12th,37410,9,35.0006894,-85.3084647,9,35.0197753,-85.3153924,4- Hamilton Place,pass,pass,,,,,,
38,4241560626,4- Hamilton Place,Out Bound,Home,,4501,Fagan,,,Work,,,Market,,,37401,9,34.998941,-85.311635,9,35.0558478,-85.310956,4- Hamilton Place,pass,pass,,,,,,
39,4241566236,4- Hamilton Place,Out Bound,Home,,51,3606 Hughes Ave,,,Work,,,Alton Park Blvd,,,37410,9,35.0078688,-85.3106056,7,35.0146023,-85.3144989,4- Hamilton Place,pass,no_pass,,,,,,
40,4241572559,4- Hamilton Place,Out Bound,Home,,,43rd & Tenn Ave,42nd & Tenn Ave,,Work,,,,Brainerd & Moore,,37409,9,35.0027913,-85.3275747,9,35.0129606,-85.2282746,4- Hamilton Place,pass,pass,,,,,,
41,4241577820,4- Hamilton Place,Out Bound,Home,,,Downtown,,,Personal errands,,,East Lake,,,37411,5,35.0277196,-85.2256635,7,35.0053103,-85.2851801,4- Hamilton Place,no_pass,no_pass,,,,,,
42,4241584232,4- Hamilton Place,Out Bound,Home,,1512,Wilson,Wilcox & Holtzclaw,,Work,,,Hamilton Place & Bam,Shallowford Rd,,37406,9,35.0541237,-85.2708729,9,35.0336912,-85.1585253,4- Hamilton Place,pass,pass,,,,,,
43,4241590139,4- Hamilton Place,In Bound,Home,,,East Brainerd,Reserve Way,,Work,,940,Market,Market & 10th St,,37421,9,35.0114288,-85.1563553,9,35.0451964,-85.3086895,4- Hamilton Place,pass,pass,,,,,,
44,4241595740,4- Hamilton Place,In Bound,Home,,211,Rolling Ridge Dr,Banks,,Work,,1001,Broad St,,TVA,37421,9,35.0059923,-85.110471,9,35.0430934,-85.3096633,4- Hamilton Place,pass,pass,,,,,,
45,4241603464,4- Hamilton Place,In Bound,School (K-12),,,20th St,Main & 20th,,Home,,,20th St & Market,,,37410,9,35.0334479,-85.2999218,9,35.031526,-85.3087365,4- Hamilton Place,pass,pass,,,,,,
46,4241608393,4- Hamilton Place,Out Bound,Work,,,Downtown,,,Home,,,Westside,,,37405,9,35.0456297,-85.3096801,8,35.0416174,-85.3181452,4- Hamilton Place,pass,pass,,,,,,
47,4241613454,4- Hamilton Place,Out Bound,Home,,2806,4th Ave,,,Medical / Hospital,,,Southside,,,37407,9,35.0107863,-85.2832707,9,35.0355387,-85.3145456,4- Hamilton Place,pass,pass,,,,,,
48,4241618195,4- Hamilton Place,Out Bound,Home,,,Bailey,,,Work,,,Hamilton Place,,,37406,7,35.0339416,-85.2774321,9,35.0336912,-85.1585253,4- Hamilton Place,no_pass,pass,,,,,,
49,4241624398,4- Hamilton Place,In Bound,Personal errands,,,Lee Hwy & Perimeter,,,Home,,1102,Austin,Brainerd & Bolivar,BX,37403,9,35.0304926,-85.1855534,9,35.0117989,-85.2419968,4- Hamilton Place,pass,pass,,,,,,
50,4241631005,16- Northgate,Out Bound,Work,,,Gunbarrel,Hixson Pike,,Home,,2627,Hixson Pike Haywood,,,37415,9,35.1156396,-85.2520739,9,35.0903363,-85.2874027,16- Northgate,pass,pass,,,,,,
51,4241639366,16- Northgate,Out Bound,Home,,3730,Dorris,Rossville,,Home,,3730,Dorris,Rossvile,,37410,9,35.0053997,-85.3091585,9,35.0903363,-85.2874027,16- Northgate,pass,pass,,,,,,
52,4241646557,16- Northgate,In Bound,Other,Mall- Northgate,271,Northgate Mall Dr,,,Home,,,East Lake,,,37343,9,35.1311669,-85.2423282,7,35.0053103,-85.2851801,16- Northgate,pass,no_pass,,,,,,
53,4241656191,16- Northgate,Out Bound,Home,,207,Spears,,,Recreation,,900,Winding Hills Ln,,,37343,9,35.0651588,-85.3109156,9,35.1462912,-85.2546819,16- Northgate,pass,pass,,,,,,
54,4241663245,16- Northgate,Out Bound,Home,,1901,Duncan Ave,Orchard Knob & McCallie,nra?,Personal errands,,797,Winding Hills,Winding Hills & Winding,,37403,9,35.035265,-85.2748745,9,35.1470179,-85.2568248,16- Northgate,pass,pass,,,,,,
55,4241669706,16- Northgate,Out Bound,Home,,,23rd St,Dodds & 23rd St,,Medical / Hospital,,,Hixson Pike,Ashland Terrace & Hixson Pike,,37404,9,35.0157686,-85.2735857,9,35.113818,-85.2600512,16- Northgate,pass,pass,,,,,,
56,4241676050,16- Northgate,Out Bound,Personal errands,,,Market St,,courthouse,Work,,6000,Hixson Pike,,Harvest Grocery,37415,9,35.0492911,-85.3089764,9,35.147377,-85.2075882,16- Northgate,pass,pass,,,,,,
57,4241683378,16- Northgate,Out Bound,University / College,,,5th & Market,,"Hamilton County, Civil/Criminal Court, and Regions Bank",Other,Mall- Northgate,,,,,37343,9,35.0492873,-85.3089885,,,,16- Northgate,pass,insufficient_data,,,,271 Northgate Mall Dr,35.13037345,-85.23925405
58,4241694855,16- Northgate,Out Bound,Personal errands,,,6th Market,,,Work,,,Middle Valley Rd,,,37405,9,35.0496808,-85.3095494,5,35.1808667,-85.197443,16- Northgate,pass,no_pass,,,,,,
59,4241702217,8- Eastdale,Out Bound,,,404,Tunnel Blvd,Tunnel & Wilcox,Shepherd Hills Apts,Work,,800,Chestnut St,Chestnut & MLK blvd,Innside Restaurant,37411,9,35.0336371,-85.2426252,9,35.046778,-85.311469,8- Eastdale,pass,pass,,,,,,
60,4241709211,1- Alton Park,Out Bound,Home,,3019,Northway Lane,Brainerd & Germantown,,Work,,5611,Brainerd Rd,Brainerd & Germantown,,37406,9,35.0651779,-85.2325201,9,35.0110953,-85.2172281,1- Alton Park,pass,pass,,,,,,
61,4241716006,1- Alton Park,Out Bound,Work,,3801,Tennessee,,Food City,Home,,,E 48th St,,Emma Wheeler Homes,37410,9,35.0096995,-85.3259481,9,34.9911728,-85.3035734,1- Alton Park,pass,pass,,,,,,
62,4241722233,1- Alton Park,Out Bound,Work,,,E 50th St,Rossville & Dodds Ave,CSL Plasma,Home,,,W 37th St,W 37th & Dirola,,37410,9,34.9861966,-85.2862308,7,35.0109232,-85.3209893,1- Alton Park,pass,no_pass,,,,,,
63,4241727575,1- Alton Park,In Bound,University / College,,,,4th & Market,,Home,,2016,Cooley St,Stuart & Dodson,,37406,9,35.0522576,-85.3096174,9,35.0497725,-85.2643849,1- Alton Park,pass,pass,,,,,,
64,4241733095,1- Alton Park,In Bound,Home,,700,E 51st St,Woodlawn & 51st,,Work,,,,,Walmart,37410,9,34.9898006,-85.3089162,9,35.0301589,-85.1527709,1- Alton Park,pass,pass,,,,,,
65,4241761317,1- Alton Park,In Bound,Home,,814,Hooken Rd,Hooken Rd,,Home,,814,Hooken Rd,,,37410,8,35.1435411,-85.272431,9,34.9927735,-85.3042209,1- Alton Park,pass,pass,,,,,,
66,4241766683,9- East Lake,In Bound,Home,,3100,12th Ave,Dodds Ave & 37th St,,Home,,5300,Hwy 153,5400 & Hwy 153,,37407,9,35.0051855,-85.2777959,9,35.1333533,-85.2457458,9- East Lake,pass,pass,,,,,,
67,4241773118,16- Northgate,Out Bound,Home,,1832,Pearl St,Chamberlain & Olive,,Home,,#16 bus,Hixson Pike,,Northgate,37406,9,35.0551873,-85.2513663,,,,16- Northgate,pass,insufficient_data,,,,271 Northgate Mall Dr,35.13037345,-85.23925405
68,4241780846,16- Northgate,Out Bound,Work,,,Northgate Mall,,,Home,,,Northgate Mall,,,37414,9,35.1300842,-85.2400216,9,35.1300842,-85.2400216,16- Northgate,pass,pass,,,,,,
69,4241787033,16- Northgate,Out Bound,Home,,1211,Westwood,Hixson & Westwood,Home,Work,,,,,Northgate Mall,37405,9,35.0739949,-85.2902918,9,35.1300842,-85.2400216,16- Northgate,pass,pass,,,,,,
70,4241793876,19- Cromwell Road,In Bound,University / College,,,,,,,,,,,,,,,,,,,19- Cromwell Road,insufficient_data,insufficient_data,,,,,,
71,4241800017,19- Cromwell Road,In Bound,Recreation,,,,,,,,,,,,,,,,,,,19- Cromwell Road,insufficient_data,insufficient_data,,,,,,
72,4241806083,19- Cromwell Road,Out Bound,Medical/hospital,,,,,,,,,,,,,,,,,,,19- Cromwell Road,insufficient_data,insufficient_data,,,,,,
73,4241812233,19- Cromwell Road,In Bound,Home,,,,,,Work,,,,,,,,,,,,,19- Cromwell Road,insufficient_data,insufficient_data,,,,,,
74,4241816387,10- East Chattanooga,In Bound,Home,,,Dodson,,,Store,,,Northgate Mall,,,37406,6,35.0612102,-85.256152,9,35.1300842,-85.2400216,10- East Chattanooga,no_pass,pass,,,,,,
75,4241821458,10- East Chattanooga,In Bound,Home,,,,Stuart & Dodson,,Work,,,,7th & Market St,TN Bank,37406,9,35.0718804,-85.2503169,9,35.048276,-85.3103009,10- East Chattanooga,pass,pass,,,,,,
76,4241828271,10- East Chattanooga,In Bound,Home,,,Fulmer,404,,Home,,4905,17th Ave,,TN Bank,37307,9,35.0716503,-85.1945974,9,35.014097,-85.324566,10- East Chattanooga,pass,pass,,,,,,
77,4241835596,10- East Chattanooga,In Bound,Home,,2116,Wilder St,Dee & Glass,,Medical / Hospital,,,3rd ST,,Erlanger Downtown,37406,9,35.072984,-85.2502458,9,35.0485516,-85.2895013,10- East Chattanooga,pass,pass,,,,,,
78,4241843982,4- Hamilton Place,In Bound,Home,,,E 14th St,E 14th St & Hickeny,,Work,,2100,Hamilton Pl Blvd,Hamilton Blvd & Gunbarrel Rd,Hamilton Place Mall,37404,7,35.02734,-85.281023,9,35.0336912,-85.1585253,4- Hamilton Place,no_pass,pass,E 14th St & S Hickory St,35.02785094,-85.31977323,,,
79,4241852064,4- Hamilton Place,Out Bound,Home,,1,11th ,Market & 11th St,,Store,,,Hamilton Place Mall,,,37402,9,35.0440479,-85.3088152,9,35.0336912,-85.1585253,4- Hamilton Place,pass,pass,,,,,,
80,4241856924,4- Hamilton Place,In Bound,Home,,1609,S Beech St,Main & Lylery,,Home,,3524,Dodson Ave,Glass & Dodson Ave,,37406,9,35.0243421,-85.2804721,9,35.0784041,-85.2459477,4- Hamilton Place,pass,pass,,,,,,
81,4241862037,4- Hamilton Place,In Bound,Work,,2020,Gunbarrel Rd,East Gate & Hamilton,Walmart,Home,,2515,Kirb Ave,,,37417,9,35.0301589,-85.1527709,9,35.0281489,-85.2668509,4- Hamilton Place,pass,pass,,,,,,
82,4241866769,4- Hamilton Place,In Bound,Home,,6220,Shallowford,,,Work,,,Brainerd,Germantown,,37421,8,35.0509591,-85.1793643,9,35.0281489,-85.2668509,4- Hamilton Place,pass,pass,,,,,,
83,4241876131,4- Hamilton Place,Out Bound,Home,,402,W 40th St,,38th St,Work,,,Lifestyle,,I-75,37410,9,35.0059126,-85.3157826,9,34.996109,-85.2066473,4- Hamilton Place,pass,pass,,,,,,
84,4241880518,4- Hamilton Place,Out Bound,Home,,25,North Germantown,Germantown & Brainerd Rd,,Work,,2014,Hamilton Blvd,Hamilton Place Mall,,37411,9,35.0254494,-85.246069,9,34.996109,-85.2066473,4- Hamilton Place,pass,pass,,,,,,
85,4241889569,4- Hamilton Place,Out Bound,Home,,1904,Mulberry St,23rd & Main,,Work,,2296,Gunbarrel ,Shallowford & Gunbarrel Rd,,37404,9,35.0211588,-85.2803104,9,35.0398011,-85.1496986,4- Hamilton Place,pass,pass,,,,,,
86,4241897060,4- Hamilton Place,In Bound,Home,,600,W 13th St,12th & Cherry,,Work,,,,,Hamilton Place Mall,37402,9,35.0421115,-85.316243,9,35.0336912,-85.1585253,4- Hamilton Place,pass,pass,,,,,,
87,4241901938,4- Hamilton Place,In Bound,Home,,119,Hollyberry Ln,,,Personal errands,,,Downtown,,,37411,9,35.0201393,-85.23807,9,35.0456297,-85.3096801,4- Hamilton Place,pass,pass,,,,,,
88,4241908474,4- Hamilton Place,In Bound,Home,,,Hickory,,,Home,,,Brainerd,,,37404,7,35.0455922,-85.2727415,7,35.0200743,-85.2402333,4- Hamilton Place,no_pass,no_pass,,,,,,
89,4241912403,4- Hamilton Place,Out Bound,Other,,,Downtown,,,Work,,,Eastgate Town Center,,,,9,35.0456297,-85.3096801,9,35.0084556,-85.2151665,4- Hamilton Place,pass,pass,,,,,,
90,4241916987,4- Hamilton Place,Out Bound,Work,,225,E 8th St,MLK & University,Champy's,Home,,,Hemphill Ave,Talley Dr & Brainerd Rd,,37411,9,35.046911,-85.3062403,9,35.0217425,-85.2414719,4- Hamilton Place,pass,pass,,,,,,
91,4241920969,4- Hamilton Place,Out Bound,Home,,,38th St,,,Work,,,Hamilton Place,,,37410,7,35.0085549,-85.3188073,9,35.0336912,-85.1585253,4- Hamilton Place,no_pass,pass,,,,,,
92,4241925134,4- Hamilton Place,Out Bound,Home,,,Dodson Ave,Stuart,,Personal errands,,,Brainerd Rd,,Walmart,37406,9,35.0718804,-85.2503169,9,35.0053727,-85.1491517,4- Hamilton Place,pass,pass,,,,,,
93,4241930037,4- Hamilton Place,Out Bound,Home,,442,Cherokee Blvd,Brainerd & Walmart,Walmart,Store,,,,Brainerd,Walmart,37405,9,35.0665828,-85.3150152,9,35.0085358,-85.2051089,4- Hamilton Place,pass,pass,,,,,,
94,4241934345,4- Hamilton Place,In Bound,School (K-12),,,,,,Home,,,,,,37404,,,,,,,4- Hamilton Place,insufficient_data,insufficient_data,,,,,,
95,4241939489,4- Hamilton Place,In Bound,Home,,2508,Long St,,Market St,Personal errands,,,Brainerd Rd,,Human Resources,37408,9,35.0268986,-85.3132784,9,35.0486275,-85.3078249,4- Hamilton Place,pass,pass,,,,,,
96,4241948933,4- Hamilton Place,Out Bound,Home,,4941,Jeffery Ln,Woodland & Jeffery,,Personal errands,,,Brainerd Rd,,Career Center,37410,9,34.9895755,-85.3059564,9,35.006848,-85.213485,4- Hamilton Place,pass,pass,,,,,,
97,4241954967,4- Hamilton Place,In Bound,Home,,1232,N Concord,E Brainerd & Concord,Take Express,Work,,714,Cherry St,7th & Cherry,,37421,9,35.0106911,-85.1757972,9,35.0479719,-85.3081689,4- Hamilton Place,pass,pass,,,,,,
98,4241959733,4- Hamilton Place,Out Bound,Home,,3929,Manor,Brainerd & Manor,,School (K-12),,,,,Eastgate Mall Chattanooga Charter,37411,9,35.0201747,-85.2383199,9,35.0084556,-85.2151665,4- Hamilton Place,pass,pass,,,,,,
99,4240288238,10- East Chattanooga,In Bound,Medical/hospital,,,Dodson Ave,,,Home,,,Lee Highway,,,37408,6,35.0612102,-85.256152,1,35.0175697,-85.2061066,10- East Chattanooga,no_pass,no_pass,,,,,,
100,4240297682,10- East Chattanooga,Out Bound,Home,,2907,Curtis,Stuart,Doddson,University / College,,59,McKee Road,Apison Pike & Old Lee Highway,Southern Adventest University,37404,9,35.0715792,-85.252458,9,35.0482015,-85.0519507,10- East Chattanooga,pass,pass,,,,,,
101,4240312354,10- East Chattanooga,In Bound,Home,,1109,N Chamberlin,,,,,,,,,,9,35.0472962,-85.2592102,,,,10- East Chattanooga,pass,insufficient_data,,,,,,
102,4240322203,10- East Chattanooga,In Bound,Medical/hospital,,,Eastside,,,Personal errands,,,Downtown,,,37411,9,35.0230979,-85.2761037,9,35.0456297,-85.3096801,10- East Chattanooga,pass,pass,,,,,,
103,4240381897,10- East Chattanooga,In Bound,Home,,503,Fisher Ave,Glenwood & Tilo,Memorial Hospital,Work,,,Gunbarrel,Hamilton Place,,37421,9,35.0414352,-85.2603854,9,35.0456297,-85.3096801,10- East Chattanooga,pass,pass,,,,,,
104,4240388552,10- East Chattanooga,Out Bound,Home,,,3rd Street,,McDonalds,,,,,,Hardy Elementary,37406,9,35.0467725,-85.2869882,9,35.0620637,-85.2574248,10- East Chattanooga,pass,pass,,,,,,
105,4240405371,10- East Chattanooga,In Bound,Home,,2005,Elma St,Glenwood,,Personal errands,,,St. Elmo,D.K.,,37406,7,35.0410502,-85.259456,9,35.0620637,-85.2574248,10- East Chattanooga,no_pass,pass,,,,,,
106,4240421508,10- East Chattanooga,Out Bound,Work,,Whitehall,3rd Street,,Central,Home,,2714,Curtis St,,,37406,9,35.0478943,-85.2912028,9,35.0697515,-85.2529028,10- East Chattanooga,pass,pass,,,,,,
107,4240430943,10- East Chattanooga,In Bound,Home,,2401,N Chamberlain Ave,,,Other,Downtown,,,,,37406,9,35.0640596,-85.2499914,,,,10- East Chattanooga,pass,insufficient_data,,,,,,
108,4240443784,10- East Chattanooga,In Bound,Other,,,Laura St,,,Home,,202,Snow St,,,37406,7,35.050167,-85.2621914,8,35.0710307,-85.3107878,10- East Chattanooga,no_pass,pass,,,,,,
109,4240464967,10- East Chattanooga,In Bound,Home,,1010,Mission Ave,Jct 24 & Glennwood,Glenwood & Mission Ave,University / College,,,,3rd St & Palmetto,,37406,9,35.0451846,-85.255831,9,35.0487401,-85.2931317,10- East Chattanooga,pass,pass,,,,,,
110,4240472061,10- East Chattanooga,Out Bound,Personal errands,,,,,McDonalds,Home,,2000,Wilson St,,,37406,9,35.0467725,-85.2869882,9,35.0518514,-85.2647243,10- East Chattanooga,pass,pass,,,,,,
111,4240479629,10- East Chattanooga,In Bound,Home,,2205,Kirby Ave,Kelly St & Kirby Ave,,University / College,,4501,Amnicola Highway,,Chattanooga State,37404,9,35.0301976,-85.2720653,9,35.1003674,-85.2375518,10- East Chattanooga,pass,pass,,,,,,
112,4240486581,10- East Chattanooga,Out Bound,Home,,,Crutchfield,Amnicola,,Other,Mall- Hamilton Place,,off E Brainerd Rd,Gunbarrel,,37406,9,35.0700931,-85.2703597,9,35.1003674,-85.2375518,10- East Chattanooga,pass,pass,,,,,,
113,4240494834,10- East Chattanooga,In Bound,Home,,314,McBrien,McBrien & Terrace,,Work,,2337,McCallie,,,37411,9,35.0057628,-85.2252185,9,35.0338414,-85.2671012,10- East Chattanooga,pass,pass,,,,,,
114,4240503184,10- East Chattanooga,In Bound,Home,,3725,Fountain Ave,Fountain Ave & Germantown,Walgreens,Work,,1404,Cowart St,Cowart & Main St,Southtree.com,37412,9,35.003601,-85.2606896,9,35.0460413,-85.2791123,10- East Chattanooga,pass,pass,,,,,,
115,4240510707,10- East Chattanooga,In Bound,Home,,,Conner Lane,Lee Hwy & Conner Lane,,Work,,,East Gate,,,37421,8,35.0419536,-85.1655468,8,35.009534,-85.2131121,10- East Chattanooga,pass,pass,,,,,,
116,4240533054,10- East Chattanooga,In Bound,Medical/hospital,,,E 3rd St,East & Third,Erlanger,Work,,,Brainerd,Brainerd & Germantown,Command Center,37411,9,35.0485516,-85.2895013,9,35.0161436,-85.2074965,10- East Chattanooga,pass,pass,,,,,,
117,4240539940,10- East Chattanooga,In Bound,Work,,,Greenway View Dr,,,Home,,,48th St,,,37410,8,35.0110487,-85.2085908,7,34.9875508,-85.2945986,10- East Chattanooga,pass,no_pass,,,,,,
118,4240549696,10- East Chattanooga,In Bound,Home,,3800,Provence St,Brainerd & Germantown,,Work,,BCBSTN,Cameron Circle,,,37411,9,35.0209472,-85.2423686,9,35.0532016,-85.3180524,10- East Chattanooga,pass,pass,,,,,,
119,4240557815,10- East Chattanooga,In Bound,Home,,5609,Brainerd Rd,,Krispy Kreme,University / College,,615,McCallie Ave,McCallie & Vine St,UTC,37411,9,35.0110018,-85.217581,9,35.0458509,-85.2953072,10- East Chattanooga,pass,pass,,,,,,
120,4240568774,10- East Chattanooga,In Bound,Home,,,Arnold Place,Belvoir & Arnold,,Work,,12,Patten Prkwy,Georgia Ave & Patten Prkwy,,37421,9,35.0077526,-85.2467984,9,35.0461298,-85.3073519,10- East Chattanooga,pass,pass,,,,,,
121,4240581791,10- East Chattanooga,In Bound,Home,,18,Hunt Ave,Hunt & Brainerd,,Work,,,Oneil,McCallie,Oneil,37411,9,35.0093317,-85.2215168,9,35.0461298,-85.3073519,10- East Chattanooga,pass,pass,,,,,,
122,4240590832,10- East Chattanooga,In Bound,Home,,2709,Citico Ave,Glenwood,,Work,,7200,Discovery Drive,,Amazon,37406,9,35.0412095,-85.2568547,9,35.0690411,-85.1411325,10- East Chattanooga,pass,pass,,,,,,
123,4240601063,10- East Chattanooga,In Bound,Home,,,Red Tail Lane,Gunbarrel & Shallowford,Walmart,Work,,,Broad St,Broad & 11th St,,34721,9,35.0301589,-85.1527709,9,35.0439256,-85.3102743,10- East Chattanooga,pass,pass,,,,,,
124,4240611383,16- Northgate,In Bound,Home,,,,,Hixon,University / College,,,,Downtown,,,3,35.137265,-85.2368219,9,35.0456297,-85.3096801,16- Northgate,no_pass,pass,,,,,,
125,4240621223,16- Northgate,In Bound,Social/restaurant,,1217,Gadd,Hixon,,Home,,1217,Gadd,,,37434,9,35.1426423,-85.2457859,9,35.1426423,-85.2457859,16- Northgate,pass,pass,,,,,,
126,4240627602,16- Northgate,In Bound,Home,,1217,Gadd Rd,153 & Gadd,McDonalds,Store,,,,6th & Market,TN Bank,37343,9,35.1387851,-85.2471585,9,35.048276,-85.3103009,16- Northgate,pass,pass,,,,,,
127,4240635944,16- Northgate,In Bound,Home,,,Northgate,Clearwater & Thrasher Pike,Panara Bread,Work,,801,Broad St,Broad & 8th,Pioneer Bldg,37343,9,35.13226,-85.2423964,9,35.0469172,-85.3114702,16- Northgate,pass,pass,,,,,,
128,4240644162,16- Northgate,Out Bound,Home,,442,Cherokee Blvd,Cherokee & Market,,Work,,19d66,Goodwell,N Point & Hixson Pike,,37405,9,35.0665828,-85.3150152,9,35.0007323,-85.2813586,16- Northgate,pass,pass,,,,,,
129,4240651581,16- Northgate,Out Bound,Home,,,Hixson Pike,,Harry's,Work,,,,,Steak n Shake,37415,9,35.107809,-85.271316,9,35.0398145,-85.1497293,16- Northgate,pass,pass,,,,,,
130,4240659715,16- Northgate,Out Bound,Home,,1201,Boynton Dr,,MLK,Store,,,,,Northgate,37402,9,35.045121,-85.320197,9,35.1300842,-85.2400216,16- Northgate,pass,pass,,,,,,
131,4240666965,16- Northgate,Out Bound,Home,,4401,Fagan St,Central & 38th,,Work,,,Northgate Mall,,Panera Bread,37410,9,35.0001431,-85.3109358,9,35.13226,-85.2423964,16- Northgate,pass,pass,,,,,,
132,4240673451,16- Northgate,In Bound,Home,,2127,Hixson Pike,,,Work,,418,McCallie,,,37343,9,35.113942,-85.2595975,9,35.0468997,-85.3048565,16- Northgate,pass,pass,,,,,,
133,4240679507,16- Northgate,In Bound,Work,,7801,153 Hixson,153 & Hixson,Kmart,Home,,2109,Wisdom St,Stuart & Dodson,Home,37406,9,35.1530655,-85.2454017,9,35.0756481,-85.2489805,16- Northgate,pass,pass,,,,,,
134,4240687590,16- Northgate,In Bound,Home,,311,Valleybrook Rd,Hixson Pike & Valleybrook Rd,,Work,,1101,Market St,Market & 11th,TVA,37343,9,35.1600954,-85.2072537,9,35.0430934,-85.3096633,16- Northgate,pass,pass,,,,,,
135,4240697372,16- Northgate,In Bound,Home,,5523,Chance Trail,Dayton Blvd & Gadd Rd,Citgo,Work,,3005,South Hickory,28th St & 4th Ave,United Enertek,37415,9,35.1511864,-85.2727582,9,35.011122,-85.292544,16- Northgate,pass,pass,,,,,,
136,4240706097,16- Northgate,In Bound,Home,,,,Cherokee & Market,Good Dog Cross Street,Work,,,Gordon,,,37405,9,35.0622852,-85.3074187,9,35.0313713,-85.1860274,16- Northgate,pass,pass,,,,,,
137,4240713085,16- Northgate,In Bound,Home,,,,Hixson Pike & Ely Rd,,Social / restaurant,,,,Frazier Ave & Tremont,Coolidge Park,37343,9,35.122978,-85.2482315,9,35.0605058,-85.3068569,16- Northgate,pass,pass,,,,,,
138,4240915874,16- Northgate,In Bound,Home,,,,,Mall,Recreation,,,Market,,,,9,35.0336912,-85.1585253,9,35.0558478,-85.310956,16- Northgate,pass,pass,,,,,,
139,4240937239,16- Northgate,Out Bound,Home,,7500,Noah Reid Road,Noah Reid & Shallowford,,Work,,,,,Northgate Mall,37416,9,35.067114,-85.1736653,9,35.1300842,-85.2400216,16- Northgate,pass,pass,,,,,,
140,4240948806,16- Northgate,Out Bound,Home,,2515,Taylor St,Dodson & Daisy,,Work,,,,,Northgate,37406,9,35.0667863,-85.2516898,9,35.1300842,-85.2400216,16- Northgate,pass,pass,,,,,,
141,4240956170,16- Northgate,In Bound,Other,Mall- Northgate,,Northgate Dr,,Northgate Mall,Work,,3500,Dodds Ave,,Goodwill Administrative Bldg/HELPS,37343,9,35.1300842,-85.2400216,9,35.0007323,-85.2813586,16- Northgate,pass,pass,,,,,,
142,4240965496,9- East Lake,In Bound,Home,,36-15,5 Ave,,,Work,,,Jenkins Rd,E Brainerd,,37407,9,35.0008331,-85.2876653,9,35.0007323,-85.2813586,9- East Lake,pass,pass,,,,,,
143,4240975125,9- East Lake,In Bound,Home,,2220,E 26th St,4th ave & 23rd,,Work,,1,Cameron Hill,4th St & Chestnut,,37407,9,35.0135039,-85.2822821,9,35.0532247,-85.3183289,9- East Lake,pass,pass,,,,,,
144,4240982862,9- East Lake,In Bound,Home,,,East 26th ,,,University / College,,,3rd,,,37407,7,35.0136181,-85.2819833,6,35.0454835,-85.2843147,9- East Lake,no_pass,no_pass,,,,,,
145,4241097445,9- East Lake,In Bound,Home,,1601,E Main Street,,,University / College,,4501,Amnicola Highway,,,37404,9,35.0276968,-85.2839476,9,35.100833,-85.2431547,9- East Lake,pass,pass,,,,,,
146,4241107354,9- East Lake,In Bound,Home,,2717,Rossville Blvd,,,Work,,5751,Uptain Rd,,,37404,9,35.016499,-85.2935446,9,35.0111665,-85.2097627,9- East Lake,pass,pass,,,,,,
147,4241176967,9- East Lake,In Bound,Home,,,4th Ave,Foust St,,Work,,,153 Highway,North point Blvd,Kmart,37407,9,35.012885,-85.2823729,9,35.0111665,-85.2097627,9- East Lake,pass,pass,,,,,,
148,4241216134,9- East Lake,Out Bound,Home,,,Dodson,,,Work,,,Calhoun Ave,,Salvation Army Warehouse,37406,6,35.0612102,-85.256152,9,35.0112296,-85.2839136,9- East Lake,no_pass,pass,,,,,,
149,4241229643,9- East Lake,Out Bound,Home,,,Dodson,,,Work,,,Calhoun Ave,,Salvation Army Warehouse,37406,6,35.0612102,-85.256152,9,35.0112296,-85.2839136,9- East Lake,no_pass,pass,,,,,,
150,4241240433,9- East Lake,Out Bound,Home,,,E 48th St,,,Personal errands,Food stamp office,,,,East Gate Mall,37407,7,34.9875508,-85.2945986,9,35.0084556,-85.2151665,9- East Lake,no_pass,pass,,,,,,
151,4241250838,9- East Lake,In Bound,Home,,,4th Ave East Lake,Central & Market,"Roger, Choo Choo",Work,,2020,Gunbarrel,Brainerd,"Walmart, East Gate",37407,9,35.0127833,-85.2821192,9,35.0084556,-85.2151665,9- East Lake,pass,pass,,,,,,
152,4241265138,9- East Lake,Out Bound,Home,,2607,E 19th St,Dodds & 19th St,,Home,,,Lyerly St,Main & Lyerly St,,37404,9,35.0181274,-85.2718048,9,35.0240137,-85.2743956,9- East Lake,pass,pass,,,,,,
153,4241275533,9- East Lake,Out Bound,Store,,,,,Norman Joshen Jr.,Store,,,Brainerd Rd,,,37404,1,35.0456297,-85.3096801,6,35.0166054,-85.2366382,9- East Lake,no_pass,no_pass,,,,,,
154,4241286067,9- East Lake,In Bound,Home,,,25th St,4th Ave,East Lake,Personal errands,,,,,Downtown Library,37407,9,35.0149578,-85.2831818,9,35.0443542,-85.3105651,9- East Lake,pass,pass,,,,,,
155,4241294066,9- East Lake,Out Bound,Home,,,E 19th St,Dodds & E 19th St,,Home,,,,Main St & Lyerly,,37404,9,35.030591,-85.264963,9,35.0240137,-85.2743956,9- East Lake,pass,pass,,,,,,
156,4241677417,9- East Lake,In Bound,Home,,2605,East Main St,East Main & Dodds,,Work,,4805,Hixson Pike,Hixson Pike & Cloverdale,,37404,9,35.0221805,-85.2690337,9,35.1258583,-85.2482775,9- East Lake,pass,pass,,,,,,
157,4241684383,9- East Lake,In Bound,Home,,,Hawthorpe,,,Work,,,McCallie,,,37401,7,35.0451065,-85.2714354,9,35.0278771,-85.2626264,9- East Lake,no_pass,pass,,,,,,
158,4241691714,9- East Lake,In Bound,Home,,,Lyerly,Main & Lyerly,,Personal errands,,,12th,,,37407,9,35.0240137,-85.2743956,7,35.0276581,-85.275747,9- East Lake,pass,no_pass,,,,,,
159,4241699383,9- East Lake,In Bound,Home,,117,Dodds Ave,23rd & Dodds,,Work,,,,,,37419,9,35.03184,-85.263822,,,,9- East Lake,pass,insufficient_data,,,,,,
160,4241705147,9- East Lake,Out Bound,University / College,,,,,Chattanooga State,Home,,,,30th and Dodds,,37406,9,35.1003674,-85.2375518,9,35.0068266,-85.2783665,9- East Lake,pass,pass,,,,,,
161,4241713929,9- East Lake,In Bound,Home,,2315,E 21st ,,,Home,,,Gunbarrel,,,37404,9,35.0180222,-85.2758243,6,35.0253176,-85.1582064,9- East Lake,pass,no_pass,,,,,,
162,4241729287,9- East Lake,In Bound,Home,,2223,E 25th St,23rd & Dodds,,Work,,,Galenwood,,Memorial Hospital,37407,9,35.0142742,-85.2808216,9,35.0414676,-85.2602001,9- East Lake,pass,pass,,,,,,
163,4241737416,9- East Lake,Out Bound,Home,,2023,Ocoee St,,Ebt,Work,,,Rossville,,Walgreen Rossville,37406,9,35.0567148,-85.2619189,9,34.9871917,-85.2877381,9- East Lake,pass,pass,,,,,,
164,4241744897,9- East Lake,Out Bound,Other,Downtown,,Downtown,,,Work,,,Eastlake,,,37406,9,35.0456297,-85.3096801,7,35.0053103,-85.2851801,9- East Lake,pass,no_pass,,,,,,
165,4241749465,10- East Chattanooga,In Bound,Home,,3000,N Chamberlin,Stuart & N Chamberlain,,Personal errands,,,Market St,MLK Market St,,37406,9,35.0703829,-85.2462751,9,35.0457293,-85.3094255,10- East Chattanooga,pass,pass,,,,,,
166,4241758104,10- East Chattanooga,Out Bound,Home,,629,Maple St. Crt,,,Work,,,,3rd & Willow,,37402,9,35.0418119,-85.3172012,9,35.0398736,-85.2692253,10- East Chattanooga,pass,pass,,,,,,
167,4241764561,10- East Chattanooga,In Bound,,,,,Glass & Dodson,,Recreation,,,,,Orchard Knob Elementary School,,9,35.063642,-85.254825,9,35.039319,-85.2706939,10- East Chattanooga,pass,pass,,,,,,
168,4241782561,10- East Chattanooga,In Bound,Work,,1400,Market St,Market & Main,,Medical / Hospital,,2333,McCallie,Willow & McCallie,,37410,9,35.0370505,-85.3068445,8,35.0345272,-85.2680434,10- East Chattanooga,pass,pass,,,,,,
169,4241793648,10- East Chattanooga,In Bound,Work,,280,Croll Court,Croll Court & West 33rd,,Store,,,Tennessee Ave,,,37410,9,35.0115235,-85.311487,7,34.9993151,-85.3277043,10- East Chattanooga,pass,no_pass,,,,,,
170,4242248084,10- East Chattanooga,In Bound,Home,,,3rd Street,Orchard Knob & 3rd,,Home,,119,Hollyberry Ln Apt 249,Minor & Brainerd Rd,,37411,9,35.0408733,-85.2719772,9,35.0201393,-85.23807,10- East Chattanooga,pass,pass,,,,,,
171,4242256815,10- East Chattanooga,In Bound,Personal errands,,801,Holtzclaw,,,Home,,,,,,37410,9,35.0351006,-85.2849873,,,,10- East Chattanooga,pass,insufficient_data,,,,,,
172,4242266157,10- East Chattanooga,In Bound,Other,,310,Wheeler,,,Home,,3806,Durris St,W 38th & E 38th,,37410,7,35.0582916,-85.2539879,9,35.0043355,-85.3094009,10- East Chattanooga,no_pass,pass,,,,,,
173,4242269380,10- East Chattanooga,In Bound,Home,,2825,Wheeler Ave,Cushman & Chamberlain,,Store,,12,Market St,,1st TN Bank,37406,9,35.0696651,-85.2484953,9,35.048276,-85.3103009,10- East Chattanooga,pass,pass,,,,,,
174,4242273742,10- East Chattanooga,In Bound,Home,,,Ocoee St,Wilcox & Chamberlain,,Work,,,19th,,Koch Foods,37406,9,35.0517432,-85.2564902,9,35.0323238,-85.3052556,10- East Chattanooga,pass,pass,,,,,,
175,4242277050,10- East Chattanooga,Out Bound,Personal errands,,1912,11th St,11th & Market,,Home,,2009,Sherman St,Sherman & Roarke,,37406,9,35.0374969,-85.2925017,9,35.0597022,-85.2592911,10- East Chattanooga,pass,pass,,,,,,
176,4242280068,10- East Chattanooga,Out Bound,Home,,900,Market,9th & Market,,Home,,3401,Campbell St,Stuart & Chamberlain,,37406,9,35.0421868,-85.2202424,9,35.073481,-85.2409459,10- East Chattanooga,pass,pass,,,,,,
177,4242283738,28- Amnicola,Out Bound,Work,,4205,10th Ave,Dodds & 22nds,Billy Forte,Home,,801,Creekside Rd,Amnicola & Creekside,,37407,9,34.9941646,-85.286251,9,35.0931685,-85.2555394,28- Amnicola,pass,pass,,,,,,
178,4242286868,28- Amnicola,Out Bound,Home,,1241,Cypress,Main & Riverfront,College Hill Courts,Personal errands,,1501,Riverside Dr,,,37402,9,35.0429049,-85.3185582,9,35.0568024,-85.280169,28- Amnicola,pass,pass,,,,,,
179,4242292427,28- Amnicola,,Home,,2511,Mcraest,,,Work,,,,,,37406,9,35.0576651,-85.252175,,,,28- Amnicola,pass,insufficient_data,,,,,,
180,4242297297,28- Amnicola,Out Bound,Home,,,Holtzclaw,E Main,,University / College,,,Amnicola Highway,,,37407,8,35.0232851,-85.2911847,6,35.0847888,-85.262224,28- Amnicola,pass,no_pass,,,,,,
181,4242300364,28- Amnicola,Out Bound,Work,,,E 17th St,Holtzclaw,,University / College,,,,,Chatt State,37407,9,35.027069,-85.2891534,9,35.1003674,-85.2375518,28- Amnicola,pass,pass,,,,,,
182,4242303114,28- Amnicola,In Bound,University / College,,,,,Chattanooga State,Personal errands,,,Market St,,United Way,37402,9,35.1003674,-85.2375518,9,35.0484566,-85.3093475,28- Amnicola,pass,pass,,,,,,
183,4242305740,28- Amnicola,In Bound,Home,,1711,Rubio,Wilcox,Carta HQ,Work,,,Amnicola Highway,,Chattanooga State,37406,9,35.0546953,-85.2684678,9,35.1003674,-85.2375518,28- Amnicola,pass,pass,,,,,,
184,4242309447,28- Amnicola,Out Bound,Store,,,,5th & Market,Dollar General,University / College,,,,,Chattanooga State,30741,9,35.0186769,-85.3210933,9,35.1003674,-85.2375518,28- Amnicola,pass,pass,,,,,,
185,4242312584,1- Alton Park,In Bound,Home,,4900,Woodline View Circle,Wilson & 49th,,Work,,,,,UTC,37410,9,34.9921987,-85.3070909,9,35.0458509,-85.2953072,1- Alton Park,pass,pass,,,,,,
186,4242315584,1- Alton Park,Out Bound,Home,,4902,Jeffery Ln,49th & Jeffrey Ln,,Store,,,,,Walmart,37410,9,34.9914974,-85.3058681,9,35.0301589,-85.1527709,1- Alton Park,pass,pass,,,,,,
187,4242318900,1- Alton Park,Out Bound,Home,,5208,Woodland View Cr,,Wheeler Homes,Home,,,,,Food City St Elmo,37411,9,34.9911728,-85.3035734,9,35.0096995,-85.3259481,1- Alton Park,pass,pass,,,,,,
188,4242321822,1- Alton Park,Out Bound,Home,,,,38th St & Tennessee Ave,Food City,University / College,,,,5th St & 4th St,UTC,37409,9,35.0096995,-85.3259481,9,35.0493712,-85.2988372,1- Alton Park,pass,pass,,,,,,
189,4242324539,1- Alton Park,Out Bound,Home,,804,West 38th,37th,Market St,Home,,804,West 38th,,,37410,9,35.0082127,-85.3183352,9,35.0082127,-85.3183352,1- Alton Park,pass,pass,,,,,,
190,4242326412,1- Alton Park,Out Bound,Home,,,,,,Medical / Hospital,,,,,,37402,,,,,,,1- Alton Park,insufficient_data,insufficient_data,,,,,,
191,4242331614,1- Alton Park,In Bound,Home,,310,W 38th,38th & Central,,Work,,,Brainerd Rd,,Sonic,37410,9,35.0068347,-85.3146777,9,35.0209708,-85.240398,1- Alton Park,pass,pass,,,,,,
192,4242335001,1- Alton Park,In Bound,Home,,4512,Highland Ave,Central & 45,,Social / restaurant,,,4th Ave,,Community Kitchen,37410,9,35.0006372,-85.317075,9,35.0405999,-85.2999564,1- Alton Park,pass,pass,,,,,,
193,4242337933,1- Alton Park,Out Bound,Home,,3929,Manor Rd,Brainerd Road,,Other,,,,,,37411,9,35.0201747,-85.2383199,,,,1- Alton Park,pass,insufficient_data,,,,,,
194,4242340823,14- Mocs Express,Out Bound,University / College,,,,,ARC,Home,,,,,Palmetto Apt,37043,9,35.0497233,-85.299843,9,35.042695,-85.29641,14- Mocs Express,pass,pass,,,,,,
195,4242343484,14- Mocs Express,In Bound,Home,,,Wheeler,,1118 Wheeler Ave Apt B,University / College,,,,,,37406,9,35.0481164,-85.2593315,,,,14- Mocs Express,pass,insufficient_data,,,,,,
196,4242345769,14- Mocs Express,Out Bound,University / College,,,,,UTC,Home,,,,,My apartment,37415,9,35.0458509,-85.2953072,9,35.0337652,-85.1434477,14- Mocs Express,pass,pass,,,,,,
197,4242347867,14- Mocs Express,In Bound,University / College,,,,,UTC,University / College,,,,,,37415,9,35.0458509,-85.2953072,,,,14- Mocs Express,pass,insufficient_data,,,,,,
198,4242351325,14- Mocs Express,In Bound,Home,,818,University,8th & Baldwin,Stophel,Work,,720,E 4th St,,McKenzie Arena,37403,9,35.0438466,-85.3004915,9,35.0503272,-85.3009161,14- Mocs Express,pass,pass,,,,,,
199,4242006757,6- East Brainerd,Out Bound,Home,,,,,Walmart neigborhood MLK area,Work,,,,,Toys R us,37421,9,35.0053727,-85.1491517,9,35.0352947,-85.1591825,6- East Brainerd,pass,pass,,,,,,
200,4242011915,6- East Brainerd,Out Bound,Work,,1527,Hickory Valley Rd,East Brainerd,Lee Hwy,Work,,,Hamilton Place Mall,Gunbarrel Rd,Walmart,37421,9,35.0255755,-85.1800121,9,35.0352947,-85.1591825,6- East Brainerd,pass,pass,,,,,,
201,4242020330,6- East Brainerd,Out Bound,Home,,516,Carriage Park Dr,,,Social / restaurant,,,,,,37421,9,35.0120715,-85.1639148,,,,6- East Brainerd,pass,insufficient_data,,,,,,
202,4242029358,6- East Brainerd,Out Bound,Home,,1224,King Arthur Rd,East Brainerd & Concord,Subway,Home,,,,,,37421,9,35.0170609,-85.1715293,,,,6- East Brainerd,pass,insufficient_data,,,,,,
203,4242033846,6- East Brainerd,Out Bound,Medical/hospital,,2626,Walker,Walker & Stan Gap,,Medical / Hospital,,,,4th & Market,,37424,9,35.0553005,-85.1353765,9,35.0522576,-85.3096174,6- East Brainerd,pass,pass,,,,,,
204,4242037354,6- East Brainerd,Out Bound,Home,,7604,Standifer Gap,Standifer & Target,,Home,,,,,,37421,9,35.048703,-85.13488,,,,6- East Brainerd,pass,insufficient_data,,,,,,
205,4242041417,6- East Brainerd,Out Bound,Home,,,Midland Pike,Caruthers & Woodvale,,Other,,,,,,37411,9,35.0284985,-85.2223899,,,,6- East Brainerd,pass,insufficient_data,,,,,,
206,4242045619,6- East Brainerd,Out Bound,Work,,,Creek,Amnicola,,Home,,7117,Saratoga,Bunker Hill & E Brainerd,,37421,9,35.0159167,-85.3987241,9,35.022177,-85.166852,6- East Brainerd,pass,pass,,,,,,
207,4242049619,6- East Brainerd,Out Bound,Home,,,Lee Hwy,Bonny Oaks & Lee Hwy,Motel 6,Store,,,Gunbarrel,,Walmart,37421,9,35.061832,-85.133792,9,35.0301589,-85.1527709,6- East Brainerd,pass,pass,,,,,,
208,4242112063,6- East Brainerd,Out Bound,Work,,727,E 11th St,,,Home,,,,,,37403,9,35.0406142,-85.299928,,,,6- East Brainerd,pass,insufficient_data,,,,,,
209,4242116234,6- East Brainerd,Out Bound,Home,,,,,,Home,,6574 E. Brainerd Rd,,,Walmart,37421,,,,9,35.0301589,-85.1527709,6- East Brainerd,insufficient_data,pass,,,,,,
210,4242120085,6- East Brainerd,Out Bound,Home,,2506,Parkwood Ave,Glenwood & Memorial Hospital,,Personal errands,Social Security Office,,,,Social Security Office,37411,9,35.0395522,-85.2609486,9,35.0149553,-85.1908178,6- East Brainerd,pass,pass,,,,,,
211,4242122422,6- East Brainerd,Out Bound,Other,Mall- Hamilton Place,,,,Hamilton Place Mall,Home,,,,Concord & Bunker Hill,,37421,9,35.0336912,-85.1585253,8,35.0198175,-85.1673028,6- East Brainerd,pass,pass,,,,,,
212,4242131060,6- East Brainerd,Out Bound,Personal errands,,,Amnicola Hwy,,Plasma,Home,,1521,Hickory Valley Rd,,The Grove Apts,37421,9,35.0568024,-85.280169,9,35.0255755,-85.1800121,6- East Brainerd,pass,pass,,,,,,
213,4242133997,6- East Brainerd,Out Bound,Store,,,,,Sears Hamilton Place,Store,,,,,Best Buy Gunbarrel,37421,9,35.0340089,-85.1587186,9,35.037403,-85.149827,6- East Brainerd,pass,pass,,,,,,
214,4242138010,6- East Brainerd,Out Bound,Home,,,Danomo Rd,E Brainerd,,Work,,,,,CUMC E. Brainerd,37421,9,35.0226919,-85.1607872,9,35.0026079,-85.1334849,6- East Brainerd,pass,pass,,,,,,
215,4242141036,6- East Brainerd,Out Bound,Medical/hospital,,,Standifer Place,,,Other,Nursing Home - Standifer Place,,,,,37363,9,35.0552775,-85.1354079,,,,6- East Brainerd,pass,insufficient_data,,,,2626 Walker Rd,35.05653428,-85.13274492
216,4242145049,6- East Brainerd,Out Bound,Home,,7821,Dunwoody Dr,Dunwoody Dr & Pinewood Rd,,Work,,400,Palmetto St,Palmetto & 3rd St,Health Dept,37421,9,35.0428208,-85.1311787,9,35.0484961,-85.2920073,6- East Brainerd,pass,pass,,,,,,
217,4242149525,16- Northgate,In Bound,Home,,2211,Crescent,With & Hamill Rd,,,,,,,Lookout Mtn,37343,6,35.1297298,-85.2199458,7,34.9942422,-85.3494027,16- Northgate,no_pass,no_pass,2211 Crescent Club Dr,35.12150291,-85.23307399,,,
218,4242152995,16- Northgate,In Bound,Home,,,Middle Valley,,,Other,Downtown,600,Market St,,Court House,37343,4,35.1959036,-85.1846785,9,35.0492911,-85.3089764,16- Northgate,no_pass,pass,,,,,,
219,4242157694,16- Northgate,In Bound,Home,,,,,Golden Gateway,Store,,,,,Northgate Mall,37404,7,35.0484074,-85.3199582,9,35.1300842,-85.2400216,16- Northgate,no_pass,pass,900 Boynton Dr,35.04861278,-85.31977323,,,
220,4242161064,16- Northgate,In Bound,Home,,,,,Northgate Mall,Work,,,,,East Lake Courts,37415,9,35.1300842,-85.2400216,9,35.0127833,-85.2821192,16- Northgate,pass,pass,,,,,,
221,4242163887,16- Northgate,In Bound,Home,,,,,,Personal errands,,,,,,37343,,,,,,,16- Northgate,insufficient_data,insufficient_data,,,,,,
222,4242167232,16- Northgate,Out Bound,Home,,5505,Central Ave,Halsey & Central,,Work,,,Hixson,Northgate & Hixson,,37410,9,34.9865031,-85.321164,9,35.1300842,-85.2400216,16- Northgate,pass,pass,,,,,,
223,4242171404,16- Northgate,In Bound,Store,,1226,Poplar St,W 12th & Poplar,,Store,,,,,Hamilton Place Mall,37402,9,35.0417508,-85.3162376,9,35.0336912,-85.1585253,16- Northgate,pass,pass,,,,,,
224,4242180931,16- Northgate,Out Bound,Home,,,,Market & 7th,,Work,,,,,Northpointe Blvd,37402,9,35.0483673,-85.3094664,7,35.1349305,-85.2386022,16- Northgate,pass,no_pass,,,,,,
225,4242184448,10- East Chattanooga,Out Bound,Work,,,,,Parkridge,Home,,1207,N Hickory,,,37406,9,35.0349467,-85.2675694,9,35.0527924,-85.2691954,10- East Chattanooga,pass,pass,,,,,,
226,4242189226,10- East Chattanooga,In Bound,Home,,,Winderser,Ronark & Orchard Knob,,Home,,,4th Ave,23rd St & 4th Ave,,37407,8,35.0477944,-85.2629747,9,35.0179478,-85.2796804,10- East Chattanooga,pass,pass,,,,,,
227,4242193516,10- East Chattanooga,In Bound,Home,,1802,Carson Ave,Carson Ave & N Orchard Knob Ave,,Home,,1227,Poplar St Cts,Poplar St & W 12th,,37402,9,35.0473684,-85.2698826,9,35.0428513,-85.3164336,10- East Chattanooga,pass,pass,,,,,,
228,4242200046,10- East Chattanooga,In Bound,Personal errands,,,,,,Recreation,,,,,,,,,,,,,10- East Chattanooga,insufficient_data,insufficient_data,,,,,,
229,4242207172,10- East Chattanooga,In Bound,Home,,440,Roberts,,,Store,,,Market,,,37404,9,35.0434684,-85.2730657,9,35.0558478,-85.310956,10- East Chattanooga,pass,pass,,,,,,
230,4242211704,1- Alton Park,In Bound,Work,,,38th,38th & Rossville,,Home,,3804,Arrow Rock,Boynton & Lightfoot,,37406,9,35.0001552,-85.2919233,9,35.0713939,-85.2094592,1- Alton Park,pass,pass,,,,,,
231,4242215989,1- Alton Park,Out Bound,Home,,2000,Hughes,38th & Central,,Work,,10,Market,,Cheeburger Cheeburger,37404,9,35.0427093,-85.2599056,9,35.0603041,-85.3089621,1- Alton Park,pass,pass,,,,,,
232,4242218972,1- Alton Park,Out Bound,Personal errands,,,,4th & Market,TVFCU,Store,,,,,Food City,37402,9,35.0478794,-85.3102932,9,35.044696,-85.1643006,1- Alton Park,pass,pass,,,,,,
233,4242223215,1- Alton Park,Out Bound,Home,,,Lee Hwy,Perimeter & Lee Hwy,,Home,,,38th,38th & Alton Park,,37410,9,35.0304926,-85.1855534,9,35.0082274,-85.3179555,1- Alton Park,pass,pass,,,,,,
234,4242230852,1- Alton Park,Out Bound,Home,,3537,Central Ave,37th & Central,,Medical / Hospital,,3527,Central,37th & Central,,37410,9,35.008559,-85.3095781,8,35.0196919,-85.1970221,1- Alton Park,pass,pass,,,,,,
235,4242234672,4- Hamilton Place,In Bound,Home,,,,State St & W Gordon,,Store,,,,,Lowe's 153,30741,9,34.98411,-85.2882609,9,35.1375666,-85.2459365,4- Hamilton Place,pass,pass,,,,,,
236,4242238600,4- Hamilton Place,In Bound,Home,,101,East 20th St,,,Home,,,,,,37407,9,35.0317273,-85.3076842,,,,4- Hamilton Place,pass,insufficient_data,,,,,,
237,4242241872,4- Hamilton Place,In Bound,Work,,16,,,Market ST,Home,,,Northgate,,,37343,6,35.0413955,-85.3085032,9,35.1300842,-85.2400216,4- Hamilton Place,no_pass,pass,16 Market St,35.05642326,-85.30965634,,,
238,4242246824,4- Hamilton Place,Out Bound,Work,,3108,Broad St,,,Personal errands,library,181E,McCallie,,,37407,9,35.0203714,-85.3202378,9,35.0278771,-85.2626264,4- Hamilton Place,pass,pass,,,,,,
239,4242249305,10- East Chattanooga,Out Bound,Work,,356,Northgate,,Northgate Mall,Home,,812,W 13th St,,,37402,9,35.1300842,-85.2400216,8,35.0402,-85.3110883,10- East Chattanooga,pass,pass,,,,,,
240,4242252452,1- Alton Park,In Bound,Home,,,,Elton Park & W 38th St,,Work,,,,,,37410,9,35.0089866,-85.319995,,,,1- Alton Park,pass,insufficient_data,,,,,,
241,4242255721,1- Alton Park,In Bound,Home,,,38th Highland,38th & Alton Park Blvd,,Personal errands,,,,20th & Broad,,37410,9,35.00671,-85.31376,9,35.0334227,-85.3135377,1- Alton Park,pass,pass,,,,,,
242,4242258556,1- Alton Park,In Bound,Work,,,38th St,38th & Central,,Work,,1101,Lindsey,Market & 11th,Library,,9,35.005943,-85.3127208,9,35.0443542,-85.3105651,1- Alton Park,pass,pass,,,,,,
243,4242263662,1- Alton Park,In Bound,Home,,4607,Highland Ave,Central & 45th,,Store,,3800,Tennessee Ave,,CVS,37410,9,34.9998586,-85.3180442,9,35.0097399,-85.3260028,1- Alton Park,pass,pass,,,,,,
244,4242266588,1- Alton Park,Out Bound,Work,,,Broad St,,,Home,,,Usher St,,,37406,6,35.032616,-85.3140632,9,34.9889042,-85.3164763,1- Alton Park,no_pass,pass,,,,,,
245,4242270548,1- Alton Park,Out Bound,Work,,,Prime St,,Pilgrim Pride,,,,,,,,9,35.0376434,-85.301361,,,,1- Alton Park,pass,insufficient_data,,,,,,
246,4242272453,1- Alton Park,In Bound,Work,,,E 20th,Kwikfood?,,Home,,1911,Robbins,,,37409,8,35.0306423,-85.3063851,9,35.0466476,-85.2679019,1- Alton Park,pass,pass,,,,,,
247,4242276251,1- Alton Park,In Bound,Home,,1100,Gateway Ave,Main & Riverfront,,Medical / Hospital,,,Dodson Ave,Dodson & Wilcox,,37402,9,35.045308,-85.3192356,9,35.0526821,-85.2607846,1- Alton Park,pass,pass,,,,,,
248,4242280250,10- East Chattanooga,Out Bound,,,,,,,,,,,,,,,,,,,,10- East Chattanooga,insufficient_data,insufficient_data,,,,,,
249,4242282192,10- East Chattanooga,Out Bound,Home,,,4th ,4th & 23rd,East Lake,Medical / Hospital,,,Lyrly,,,37407,9,35.0179478,-85.2796804,7,35.0249105,-85.2739252,10- East Chattanooga,pass,no_pass,,,,,,
250,4242287087,10- East Chattanooga,,,,,,,,,,,,,,,,,,,,,10- East Chattanooga,insufficient_data,insufficient_data,,,,,,
251,4242290603,10- East Chattanooga,In Bound,Home,,2517,Taylor,Stuart & Dodson,,Work,,209,Northgate Mall,153 & Hixson Pike,,37406,9,35.0669135,-85.2516493,9,35.130413,-85.239769,10- East Chattanooga,pass,pass,,,,,,
252,4242294526,10- East Chattanooga,Out Bound,Home,,4417,Oakwood Dr,Jersey Pike & Hwy 58,Goodwill,Work,,5319,Hwy 153,Hixson Pike & Cloverdale,Krystal,37416,9,35.0897405,-85.1818903,9,35.0291687,-85.1882979,10- East Chattanooga,pass,pass,,,,,,
253,4242297518,10- East Chattanooga,Out Bound,Work,,,,12th & Market,,Work,,,Brainerd Rd,,,37406,9,35.0419414,-85.3087985,6,35.0166054,-85.2366382,10- East Chattanooga,pass,no_pass,,,,,,
254,4242304150,10- East Chattanooga,Out Bound,Work,,,3rd St,,McDonalds,Home,,,N Chamberlain,,,37406,9,35.0467725,-85.2869882,7,35.0585746,-85.2527581,10- East Chattanooga,pass,no_pass,,,,,,
255,4242307046,10- East Chattanooga,,Home,,,,,,School (K-12),,,,,,37406,,,,,,,10- East Chattanooga,insufficient_data,insufficient_data,,,,,,
256,4242311301,10- East Chattanooga,Out Bound,Work,,520,Apison Pike,Little Debbie Pkwy & Old Lee,McKee Food Cmp,Home,,2902,Curtis St,Stuart & Dodson,Dollar General,37406,9,35.0388374,-85.0303497,9,35.0735232,-85.2500521,10- East Chattanooga,pass,pass,,,,,,
257,4242315929,10- East Chattanooga,In Bound,Home,,,,,,University / College,,,Chatt State,,,37406,,,,9,35.1003674,-85.2375518,10- East Chattanooga,insufficient_data,pass,,,,,,
258,4242319297,13- Rossville,In Bound,Home,,2905,3rd Ave,29th & 3rd,,Work,,2301,Ivy,Ivy & 3rd St,Orchard Knob School,37407,9,35.0098109,-85.2855236,9,35.039319,-85.2706939,13- Rossville,pass,pass,,,,,,
259,4242322784,5- North Brainerd,Out Bound,Home,,601,Walnut Ave,,Hamilton County Jail,Home,,4907,Greenview Dr,Moore Rd & Brainerd Rd,,37411,9,35.0493898,-85.3082093,9,35.0217667,-85.2222046,5- North Brainerd,pass,pass,,,,,,
260,4242326247,5- North Brainerd,In Bound,Home,,611,Belle Vist Ave,,,Work,,,Lee Hwy,,,37411,9,35.0343657,-85.2380614,1,35.0175697,-85.2061066,5- North Brainerd,pass,no_pass,,,,,,
261,4242329229,5- North Brainerd,In Bound,Home,,721,Woodmore Ln,Woodmore & Wilson ave,,Work,,,Market St,5th & Market,,37411,9,35.0310026,-85.2278278,9,35.0509513,-85.3095897,5- North Brainerd,pass,pass,,,,,,
262,4242332330,5- North Brainerd,Out Bound,Home,,,Moore,,,Work,,,,Market & 12th,,37411,7,35.0271982,-85.22046,9,35.0419414,-85.3087985,5- North Brainerd,no_pass,pass,,,,,,
263,4242335662,5- North Brainerd,Out Bound,Home,,,Woodvale & Tomahawk Trail,Belle Vista & N Moore,,Work,,,Brainerd Rd,,Krystals,37411,9,35.0253077,-85.2239092,9,35.010584,-85.2213127,5- North Brainerd,pass,pass,,,,,,
264,4242339093,5- North Brainerd,Out Bound,Home,,5062,Cameron Ln Apt A,Cameron & Hicks,,Work,,1001,Carter St,MLK & Carter St,AIL/Gateway Professionals,37411,9,35.0211146,-85.2189812,9,35.044659,-85.312778,5- North Brainerd,pass,pass,,,,,,
265,4242345448,5- North Brainerd,Out Bound,Work,,,,,Carolyn Hicks?,Work,,,,,,37411,1,35.0456297,-85.3096801,,,,5- North Brainerd,no_pass,insufficient_data,,,,,,
266,4242348426,5- North Brainerd,Out Bound,Other,Mall- Eastgate Towncenter,,,,,Work,,800,Woodmore Ln,,,37410,,,,9,35.031777,-85.2262299,5- North Brainerd,insufficient_data,pass,5600 Brainerd Rd,35.00972965,-85.21638367,,,
267,4242351945,5- North Brainerd,In Bound,Home,,46144,Leslie Ln,Moore Rd & Leslie Ln,,Work,,5900,Brainerd Rd,,,37411,9,35.0363936,-85.218593,9,35.0125437,-85.2109362,5- North Brainerd,pass,pass,,,,,,
268,4242355214,5- North Brainerd,In Bound,Home,,3627,Ridgeside,,,Work,,7555,Goodwen Rd,,,37411,9,35.0310123,-85.2401241,9,35.0297377,-85.1486656,5- North Brainerd,pass,pass,,,,,,
269,4242358019,5- North Brainerd,Out Bound,Home,,747,Henderson Dr,Midland & Henderson,,Work,,1601, Agnes Ave,Agnes & Wilcox,,37411,9,35.0292856,-85.2256433,9,35.047114,-85.2347852,5- North Brainerd,pass,pass,,,,,,
270,4242360625,5- North Brainerd,Out Bound,Work,,,,,Amazon,Home,,731,McGowan Rd,,,37411,9,35.0690411,-85.1411325,9,35.0341167,-85.2328033,5- North Brainerd,pass,pass,,,,,,
271,4242363533,4- Hamilton Place,Out Bound,Home,,700,E 51st St,,,Home,,,,,Walmart,37410,9,34.9898006,-85.3089162,9,35.0301589,-85.1527709,4- Hamilton Place,pass,pass,,,,,,
272,4242365684,4- Hamilton Place,Out Bound,Home,,,,,,Home,,,,,,,,,,,,,4- Hamilton Place,insufficient_data,insufficient_data,,,,,,
273,4244899565,4- Hamilton Place,Out Bound,University / College,,,Gunbarrel Rd,,Hamilton Mall,University / College,,,McCallie Ave,,,37421,9,35.0336912,-85.1585253,6,35.0379648,-85.2802463,4- Hamilton Place,pass,no_pass,,,,,,
274,4244903618,4- Hamilton Place,Out Bound,Work,,,Kelly,McCallie & Kelly,,Home,,32,Rossville,Rossville & 32,,37407,9,35.0517589,-85.1815973,9,35.0075893,-85.2933798,4- Hamilton Place,pass,pass,,,,,,
275,4244908684,4- Hamilton Place,In Bound,Home,,6860,Lee Hwy,Hickory Valley & Lee Hwy,CVS Pharmacy,Work,,,Market St,4th & Market,Family Dollar,37421,9,35.0405728,-85.1684184,9,35.0505008,-85.3098734,4- Hamilton Place,pass,pass,,,,,,
276,4244911730,4- Hamilton Place,In Bound,Home,,,,,Ooltewah,Recreation,,,,,,,1,35.0712154,-85.0817091,,,,4- Hamilton Place,no_pass,insufficient_data,,,,,,
277,4244914546,4- Hamilton Place,In Bound,Home,,,Downtown,,,Work,,,,,,37416,4,35.0863004,-85.1790404,,,,4- Hamilton Place,no_pass,insufficient_data,,,,,,
278,4244917390,4- Hamilton Place,In Bound,Home,,,,Tunnel Blvd & Cottonwood Ln,,Home,,3552,Cottonwood Ln,Tunnel Blvd & Cottonwood Ln,,37407,9,35.0530392,-85.2339533,9,35.052258,-85.2313471,4- Hamilton Place,pass,pass,,,,,,
279,4244925910,4- Hamilton Place,In Bound,Home,,,Downtown,,,Home,,,Mall,,,37404,4,35.0297403,-85.2774207,9,35.0336912,-85.1585253,4- Hamilton Place,no_pass,pass,,,,,,
280,4244929106,4- Hamilton Place,Out Bound,Personal errands,,,,6th & Market,,Store,,,,,Walmart (Brainerd),37406,9,35.0496808,-85.3095494,9,35.0085358,-85.2051089,4- Hamilton Place,pass,pass,,,,,,
281,4244938291,4- Hamilton Place,Out Bound,Social/restaurant,,,,,,Work,,1412,ormont,,leo lopez,,,,,1,35.0456297,-85.3096801,4- Hamilton Place,insufficient_data,no_pass,,,,,,
282,4244948354,4- Hamilton Place,Out Bound,Home,,,,,,School (K-12),,,,,,,,,,,,,4- Hamilton Place,insufficient_data,insufficient_data,,,,,,
283,4244955016,4- Hamilton Place,In Bound,,,,,,,,,,,Nicetoro & Mancillia,1412 Armor,,,,,9,35.1239881,-85.288635,4- Hamilton Place,insufficient_data,pass,,,,,,
284,4244957772,4- Hamilton Place,Out Bound,Home,,2614,Lyndon Ave,,,Medical / Hospital,,2614,Lyndon Ave,,,37415,9,35.099947,-85.300898,9,35.099947,-85.300898,4- Hamilton Place,pass,pass,,,,,,
285,4244963015,4- Hamilton Place,Out Bound,Personal errands,,,E Brainerd Rd,,,Personal errands,,,Regions Bank,Brainerd Rd,,37412,4,35.0022305,-85.1274148,9,35.099947,-85.300898,4- Hamilton Place,no_pass,pass,,,,,,
286,4244967007,4- Hamilton Place,Out Bound,Personal errands,,3641,Northgate Mall Dr,,,Home,,,Downtown,,,37343,9,35.1321918,-85.2395952,9,35.0456297,-85.3096801,4- Hamilton Place,pass,pass,,,,,,
287,4244969756,4- Hamilton Place,Out Bound,Home,,1200,Boynton Dr,,,Work,,,,,,,9,35.0451525,-85.3191336,,,,4- Hamilton Place,pass,insufficient_data,,,,,,
288,4244972992,4- Hamilton Place,Out Bound,Home,,1100,Gateway Terrace,,,,,,,,Physicians Care 1313,37402,9,35.045308,-85.3192356,9,35.0388142,-85.2816912,4- Hamilton Place,pass,pass,,,,,,
289,4244981838,4- Hamilton Place,Out Bound,Work,,1, Fountain Square,Market & 4th,,Home,,510,Central Dr,Lee Hwy & E Brainerd Rd,Aldi Grocery Store,37421,9,35.0504844,-85.3068744,9,35.0180662,-85.2041344,4- Hamilton Place,pass,pass,,,,,,
290,4244985570,4- Hamilton Place,Out Bound,University / College,,,,MLK & Douglas,UTC,Home,,,,,Chambliss Center,37405,9,35.0474378,-85.300106,9,35.028504,-85.24288,4- Hamilton Place,pass,pass,,,,,,
291,4244990550,4- Hamilton Place,In Bound,Home,,,Gerald Hicks,,,Home,,,PO Box 8152 Chatt Tenn,,,,1,35.0456297,-85.3096801,9,35.0458509,-85.2953072,4- Hamilton Place,no_pass,pass,,,,,,
292,4244993267,4- Hamilton Place,In Bound,Work,,,Germantown,Brainerd Rd,,Work,,,,Lee Hwy,Burger King,37411,9,35.0220657,-85.246603,9,35.0306673,-85.1840253,4- Hamilton Place,pass,pass,,,,,,
293,4245105123,4- Hamilton Place,In Bound,Other,,,Lee Hwy,Lee Hwy & Customer,,Work,,,Greenway,,Walmart,37411,9,35.02922,-85.190099,9,35.0085358,-85.2051089,4- Hamilton Place,pass,pass,,,,,,
294,4245107994,4- Hamilton Place,In Bound,Work,,2321,Shallowford Rd,,,Home,,177,Glenwood Dr,,,37406,9,35.0428683,-85.2224315,9,35.033455,-85.2633212,4- Hamilton Place,pass,pass,,,,,,
295,4245110025,4- Hamilton Place,In Bound,Work,,,,,Embassy Suites,Home,,,,,Glass St,37406,9,35.0418586,-85.1516876,7,35.0646544,-85.2515885,4- Hamilton Place,pass,no_pass,,,,,,
296,4245112531,4- Hamilton Place,Out Bound,Personal errands,,,New to area - not sure,,,Store,,,,,Walmart,,9,35.03731,-85.1362879,9,35.0301589,-85.1527709,4- Hamilton Place,pass,pass,,,,,,
297,4245115588,4- Hamilton Place,Out Bound,Home,,870,Vine St,Mc Ave & Central,,Other,Mall- Hamilton Place,,,,Hamilton Mall,37403,9,35.0441679,-85.2919283,9,35.0336912,-85.1585253,4- Hamilton Place,pass,pass,,,,,,
298,4245117260,4- Hamilton Place,In Bound,Recreation,,,Brainerd Rd,,Walmart Greenway,Home,,,E 8th St,,,37401,9,35.0085358,-85.2051089,7,35.0437387,-85.2984391,4- Hamilton Place,pass,no_pass,,,,,,
299,4247944892,10- East Chattanooga,In Bound,Work,,,Brainerd Rd ,,Brainerd Rd walmart ,Home,,38th,Alton Park ,,Hooker Road ,37407,9,35.0085358,-85.2051089,9,34.99359,-85.304614,10- East Chattanooga,pass,pass,,,,,,
300,,10- East Chattanooga,Out Bound,Work,,742,W ML King,Golden Gateway & ML King,AIM Center,Home,,1301,N Orchard Knob,,,37406,,,,,,,10- East Chattanooga,insufficient_data,insufficient_data,742 W MLK Blvd,35.04885422,-85.32082806,1301 N Orchard Knob Ave,35.05281259,-85.2658336
301,4241804214,10- East Chattanooga,In Bound,Home,,2700,Appling ,,,Personal errands,,4th ,Downtown ,,,37406,9,35.0659747,-85.2487174,7,35.0521196,-85.3039053,10- East Chattanooga,pass,no_pass,,,,,,
302,4241816273,10- East Chattanooga,In Bound,Home,,1940,Acer Circle ,,,Home,,,Germantown,,,37406,9,35.0560597,-85.253183,9,35.0220657,-85.246603,10- East Chattanooga,pass,pass,,,,,,
303,4241830310,10- East Chattanooga,In Bound,Home,,,Gilbert/ North Chamberlain,,,Personal errands,,,Greenway View Drive,,,37406,9,35.0562419,-85.2540348,8,35.0110487,-85.2085908,10- East Chattanooga,pass,pass,,,,,,
304,4241843301,10- East Chattanooga,Out Bound,Work,,4th ,Downtown ,,,Home,,,East Chatt,,,37406,7,35.0521196,-85.3039053,1,35.0456297,-85.3096801,10- East Chattanooga,no_pass,no_pass,,,,,,
305,4243349077,10- East Chattanooga,In Bound,Home,,,Bailey Ave,,,Work,,,,Market street,Marriott Hotel ,37404,7,35.0331768,-85.2753709,9,35.0434593,-85.3126889,10- East Chattanooga,no_pass,pass,,,,,,
306,4243361761,10- East Chattanooga,Out Bound,Home,,,Dodson,,,Personal errands,,,Downtown,,,37406,6,35.0612102,-85.256152,9,35.0456297,-85.3096801,10- East Chattanooga,no_pass,pass,,,,,,
307,4243371889,10- East Chattanooga,In Bound,Work,,,Chamberline,,Choo Choo ,Work,,,Market,,Choo choo,37406,9,35.0372222,-85.3069444,9,35.0372222,-85.3069444,10- East Chattanooga,pass,pass,,,,,,
308,4243388874,10- East Chattanooga,Out Bound,Medical/hospital,,1200,Dodsom Avenue health ,Dodson and Wilson ,,Personal errands,,12th ,Market street ,Market street,,37406,9,35.0504643,-85.2616934,9,35.0372222,-85.3069444,10- East Chattanooga,pass,pass,,,,,,
309,4243411226,10- East Chattanooga,Out Bound,Home,,815,W 13th street Court,Cypress and grove,,Personal errands,,,Dodson,,East chattanooga rec,37402,9,35.042806,-85.3183023,9,35.0662809,-85.25506,10- East Chattanooga,pass,pass,,,,,,
310,4243459251,10- East Chattanooga,Out Bound,Work,,2200,Daisy street ,Daisy and Dodson ,,Home,,2200,Daisy street ,Daisy and Dodson ,,37406,9,35.0662117,-85.2534274,9,35.0662809,-85.25506,10- East Chattanooga,pass,pass,,,,,,
311,4243472299,10- East Chattanooga,Out Bound,Home,,12th,Market,,,Personal errands,,,,,Avondale,37402,9,35.04182,-85.30899,7,35.0537593,-85.2593113,10- East Chattanooga,pass,no_pass,,,,,,
312,4243482835,4- Hamilton Place,In Bound,Home,,3401,Wilcox Blvd apt aa,,,Home,,,Walmart Brainerd road ,,,37411,9,35.0443031,-85.2241082,9,35.0053727,-85.1491517,4- Hamilton Place,pass,pass,,,,,,
313,4243497699,4- Hamilton Place,In Bound,Work,,,Lee HWY and Bonney oak ,,,Home,,,Hickory street ,3rd and orchardknob,,37404,9,35.0607122,-85.1342386,9,35.0053727,-85.1491517,4- Hamilton Place,pass,pass,,,,,,
314,4243512227,4- Hamilton Place,In Bound,Home,,,East 11 street ,11th and market street ,,Other,Mall- Northgate,,,,,37402,8,35.0423029,-85.3050371,,,,4- Hamilton Place,pass,insufficient_data,,,,271 Northgate Mall Dr,35.13037345,-85.23925405
315,4243526146,4- Hamilton Place,Out Bound,Home,,1700,East 12th street,,,Home,,,,,,37404,9,35.0292325,-85.2814824,,,,4- Hamilton Place,pass,insufficient_data,,,,,,
316,4243536034,4- Hamilton Place,Out Bound,Personal errands,,,,,Walmart,Social / restaurant,,,,,Sonic,37405,9,35.0301589,-85.1527709,9,35.2237127,-85.2181637,4- Hamilton Place,pass,pass,,,,,,
317,4243550297,4- Hamilton Place,Out Bound,Home,,,,13th and grove st,,Work,,,,Laffa and Anonica HWY,,37402,9,35.0425,-85.31896,9,35.0190759,-85.3393667,4- Hamilton Place,pass,pass,,,,,,
318,4243566032,4- Hamilton Place,Out Bound,Home,,510,Central Dr,Lee HWY ,,Work,,,Gumberral walmart ,,,37421,9,35.0220926,-85.1956989,9,35.0301589,-85.1527709,4- Hamilton Place,pass,pass,,,,,,
319,4243578908,4- Hamilton Place,Out Bound,Home,,,Rossville Blvd ,Dodds and Rossville Blvd ,Walgreens ,Medical / Hospital,,,Eastgate,Uptain Bldg and eastgate mall ,Eastgate mall,37407,9,34.9871917,-85.2877381,9,35.0301589,-85.1527709,4- Hamilton Place,pass,pass,,,,,,
320,4243594246,4- Hamilton Place,In Bound,Work,,,Hamilton place ,,,Personal errands,,,Eastgate,,,37404,9,35.0336912,-85.1585253,8,35.009534,-85.2131121,4- Hamilton Place,pass,pass,,,,,,
321,4245948088,4- Hamilton Place,Out Bound,Work,,,,,,Work,,,Hamilton ,,Erlanger east,37404,,,,9,35.0226919,-85.1607872,4- Hamilton Place,insufficient_data,pass,,,,,,
322,4245962279,4- Hamilton Place,Out Bound,University / College,,,MLK Blvd ,,,Work,,,Hamilton place Blvd ,,,37421,7,35.0471878,-85.3154866,7,35.0373288,-85.1604777,4- Hamilton Place,no_pass,no_pass,,,,,,
323,4245981960,4- Hamilton Place,Out Bound,Work,,,MLK,,,Home,,,hydas lane ,,,37421,7,35.0468575,-85.3010698,9,35.0354167,-85.1160032,4- Hamilton Place,no_pass,pass,,,,,,
324,4245998264,4- Hamilton Place,In Bound,Home,,2020,Cratchfield,Glass and roanoke,,University / College,,Home,Refer back ,,,37406,9,35.0648188,-85.2569624,9,35.1653817,-85.2616763,4- Hamilton Place,pass,pass,,,,,,
325,4246062354,4- Hamilton Place,In Bound,Store,,,Chatt Inn ,23rd st ,,Home,,,,Chatt Inn ,23rd st,,9,35.0180118,-85.2825358,9,35.0180118,-85.2825358,4- Hamilton Place,pass,pass,,,,,,
326,4246076339,4- Hamilton Place,In Bound,Home,,5730,Lee HWY,,,Work,,,Enterpize drive ,,,,9,35.0191164,-85.2023164,7,35.0704457,-85.1832402,4- Hamilton Place,pass,no_pass,,,,,,
327,4246131780,4- Hamilton Place,In Bound,Work,,2276,Gunbarrel Rd,Shallowford,,Home,,457,Dodson ave,4th,,37404,9,35.0381238,-85.1511967,9,35.040179,-85.266954,4- Hamilton Place,pass,pass,,,,,,
328,4246145531,4- Hamilton Place,Out Bound,Home,,,Lee HWY,Airport road and Lee HWY ,,Work,,,3 7th street ,Incline and St elmo ,,37421,9,35.02264,-85.19808,9,35.040179,-85.266954,4- Hamilton Place,pass,pass,,,,,,
329,4246160924,4- Hamilton Place,In Bound,Home,,,,,Bailey and willow ,Home,,,Gunbarrel,,Walmart ,37404,9,35.0323731,-85.2732192,9,35.0301589,-85.1527709,4- Hamilton Place,pass,pass,,,,,,
330,4246174241,4- Hamilton Place,In Bound,Personal errands,,,5951 Brainerd road ,E. Brainerd road ,Midas,Home,,643,Sylvan Dr ,Phoenix Ave ,Home ,37411,9,35.0167799,-85.2080731,9,35.0301589,-85.1527709,4- Hamilton Place,pass,pass,,,,,,
331,4246216905,4- Hamilton Place,In Bound,Work,,2321,Lifestyle way ,,Embassy suites,Home,,402,West 40th Street ,,,37410,9,35.0418586,-85.1516876,9,35.0059126,-85.3157826,4- Hamilton Place,pass,pass,,,,,,
332,4246234635,4- Hamilton Place,In Bound,Work,,2026,Gumbarrel road ,,Walmart ,Home,,2655 glass street ,,Glass and chamerlain,,37406,9,35.0301589,-85.1527709,9,35.0654714,-85.2489674,4- Hamilton Place,pass,pass,,,,,,
333,4246244581,4- Hamilton Place,In Bound,Home,,3,Matlock St ,Matlock and Hamilton Ave ,,Social / restaurant,,,,,Hamilton place mall ,37405,9,35.0782436,-85.3080679,9,35.0336912,-85.1585253,4- Hamilton Place,pass,pass,,,,,,
334,4246277244,4- Hamilton Place,In Bound,University / College,,,,,Hamilton place mall ,University / College,,742,Oak street ,Mcallie and palmetto street ,Champys,37403,9,35.0336912,-85.1585253,9,35.0336912,-85.1585253,4- Hamilton Place,pass,pass,,,,,,
335,4246283147,4- Hamilton Place,Out Bound,Work,,,,,,Home,,,,,,,,,,,,,4- Hamilton Place,insufficient_data,insufficient_data,,,,,,
336,4246289738,4- Hamilton Place,Out Bound,Personal errands,,814,Palmetto,MLK and palmetto,,Personal errands,,,,,Hamilton place mall ,37403,9,35.0424096,-85.2969585,9,35.0336912,-85.1585253,4- Hamilton Place,pass,pass,,,,,,
337,4246304378,4- Hamilton Place,Out Bound,Home,,,Chandler ,,37 street ,,,,,,,,9,35.0083148,-85.3139362,,,,4- Hamilton Place,pass,insufficient_data,,,,,,
338,4246314290,4- Hamilton Place,Out Bound,Personal errands,,,3rd Street ,Holtzclaw and 3rd ,,Home,,119,Holly berry lane ,Brainerd and minor ,,37411,9,35.0416941,-85.2735549,9,35.0336912,-85.1585253,4- Hamilton Place,pass,pass,,,,,,
339,4246339522,4- Hamilton Place,Out Bound,University / College,,,Amincola HWY ,Wilson and wilder ,,Store,,,Gunberral ,GB and Hamilton place Blvd ,,37406,9,35.095938,-85.2453108,9,35.0336912,-85.1585253,4- Hamilton Place,pass,pass,,,,,,
340,4246355035,4- Hamilton Place,Out Bound,Home,,3218,Gleason drive ,Germantown and Brainerd ,,Work,,2200,Bams drive ,Hamilton place Blvd ,,37412,9,35.0129408,-85.2609091,9,35.0336912,-85.1585253,4- Hamilton Place,pass,pass,,,,,,
341,4246363559,4- Hamilton Place,Out Bound,Home,,2409,LeAnn circle ,Wilcox and tunnel Blvd ,,Work,,1156,Talley road ,,,37406,9,35.0589799,-85.2265737,9,35.041632,-85.2262753,4- Hamilton Place,pass,pass,,,,,,
342,4246374732,4- Hamilton Place,In Bound,Home,,2511,Vance Ave ,Dodds Ave and Vance ,,Work,,730,Admin Dr ,Center st and shallowford Rd ,,37404,9,35.0274474,-85.2675785,9,35.041632,-85.2262753,4- Hamilton Place,pass,pass,,,,,,
343,4246544381,4- Hamilton Place,In Bound,Home,,2300,Wilson street ,Glenwood and Wilson. ,,Home,,2300,,Wilson ,,37406,9,35.0493589,-85.2609284,9,34.9905875,-85.3083379,4- Hamilton Place,pass,pass,,,,,,
344,4246553214,4- Hamilton Place,In Bound,Work,,,Gunbarrel,,Five guys burger and fries ,Home,,,Ham place ,,,,9,35.0310237,-85.1512175,9,35.0314496,-85.1506911,4- Hamilton Place,pass,pass,,,,,,
345,4246558199,4- Hamilton Place,In Bound,Work,,,,,,Home,,,,,,37411,,,,,,,4- Hamilton Place,insufficient_data,insufficient_data,,,,,,
346,4246565048,4- Hamilton Place,In Bound,Home,,,1627 east 5th Street ,,,,,,,1627 e. ,,37404,9,35.0405301,-85.275602,1,35.0456297,-85.3096801,4- Hamilton Place,pass,no_pass,,,,,,
347,4246573899,4- Hamilton Place,In Bound,University / College,,705,McCallie Ave ,Baldwin and mccallie,Stogmaies halln,Store,,,,,Hamilton place mall ,37403,9,35.0452507,-85.2983505,9,35.0336912,-85.1585253,4- Hamilton Place,pass,pass,,,,,,
348,4246583662,4- Hamilton Place,In Bound,Work,,,Brainerd ,North Moore,,Home,,,Gunbarrel,E Brainerd and guess ,,,9,35.0129606,-85.2282746,9,35.0336912,-85.1585253,4- Hamilton Place,pass,pass,,,,,,
349,4246593122,4- Hamilton Place,In Bound,Home,,510,Central Dr,Lee HWY and airport Rd ,,Recreation,,,,6th and broad ,,,9,35.0220926,-85.1956989,9,35.0496513,-85.3106717,4- Hamilton Place,pass,pass,,,,,,
350,4246600996,4- Hamilton Place,,Home,,,,,,Home,,,,,,37405,,,,,,,4- Hamilton Place,insufficient_data,insufficient_data,,,,,,
351,4246610143,4- Hamilton Place,Out Bound,Personal errands,,,Market st ,,,Personal errands,,,Lee highway ,,,37404,6,35.0413955,-85.3085032,1,35.0175697,-85.2061066,4- Hamilton Place,no_pass,no_pass,,,,,,
352,4246618857,4- Hamilton Place,In Bound,Home,,,Roanoke,,3rd and orchardknob,Work,,,Shallowford Rd ,,Shallowford and Lee HWY,37406,9,35.0408733,-85.2719772,9,35.0449042,-85.1624371,4- Hamilton Place,pass,pass,,,,,,
353,4246625172,4- Hamilton Place,Out Bound,Home,,825,West 12th St ,,Downtown area,Home,,,,,,37406,9,35.0450776,-85.3171557,,,,4- Hamilton Place,pass,insufficient_data,,,,,,
354,4246630867,4- Hamilton Place,Out Bound,Home,,,,,,Work,,,,,,37404,,,,,,,4- Hamilton Place,insufficient_data,insufficient_data,,,,,,
355,4246643254,4- Hamilton Place,Out Bound,Other,Interview,2117,Rossville Blvd ,E 28th and Rossville ,Mapco,Other,job interview,,,,Convey's,37407,9,35.015658,-85.293892,1,35.0456297,-85.3096801,4- Hamilton Place,pass,no_pass,,,,,,
356,4246653000,4- Hamilton Place,Out Bound,Personal errands,,801,Housing authority,3rd St ,,Home,,717,E 11th St ,Baldwin,,,9,35.049779,-85.277329,9,35.0407188,-85.3004128,4- Hamilton Place,pass,pass,,,,,,
357,4246659957,4- Hamilton Place,Out Bound,University / College,,,,,Chatt state ,Home,,717,E 11th St ,,,37403,9,35.1003674,-85.2375518,9,35.0407188,-85.3004128,4- Hamilton Place,pass,pass,,,,,,
358,4246667126,4- Hamilton Place,Out Bound,Home,,,Downtown,,,Home,,,,,,37404,4,35.0297403,-85.2774207,,,,4- Hamilton Place,no_pass,insufficient_data,,,,,,
359,4246685881,4- Hamilton Place,Out Bound,Home,,,Downtown,,,Home,,,,,,37404,4,35.0297403,-85.2774207,,,,4- Hamilton Place,no_pass,insufficient_data,,,,,,
360,4246679435,4- Hamilton Place,Out Bound,Home,,953,Boynton Dr ,MLK and boynton,Katherine Sullivan ,Medical / Hospital,,953,Boynton Dr ,,Katherine cox ,37402,9,35.0473802,-85.3204509,9,35.0473802,-85.3204509,4- Hamilton Place,pass,pass,,,,,,
361,4246694073,4- Hamilton Place,Out Bound,Personal errands,,,,Douglas & McCallie,Utc student center ,Other,Mall- Hamilton Place,,,,Hamilton place,37411,9,35.04868,-85.303478,9,35.0336912,-85.1585253,4- Hamilton Place,pass,pass,,,,,,
362,4246703617,4- Hamilton Place,In Bound,Social/restaurant,,,Hamilton place ,,,Home,,,Rossville ga ,,,,9,35.0336912,-85.1585253,7,34.9831309,-85.2860676,4- Hamilton Place,pass,no_pass,,,,,,
363,4246708624,4- Hamilton Place,Out Bound,Home,,3002,Peggy lane ,Moss st and shall Rd ,,Work,,,East gate loop ,,,37404,9,35.0443504,-85.2486166,8,35.009534,-85.2131121,4- Hamilton Place,pass,pass,,,,,,
364,4246719424,4- Hamilton Place,In Bound,Home,,4509,Delashmit Rd ,,Hixson pk and Ely Rd ,Personal errands,Affordable dentures ,,Hamilton pk Dr ,Hamilton and walker ,Affordable dentures,37343,9,35.12322,-85.24819,8,35.009534,-85.2131121,4- Hamilton Place,pass,pass,,,,,,
365,4246728635,4- Hamilton Place,Out Bound,Home,,2018,E 13th ,E 13th and willow ,,Other,,,,,Walmart ,37404,9,35.0265083,-85.2765518,9,35.0301589,-85.1527709,4- Hamilton Place,pass,pass,,,,,,
366,4246739142,4- Hamilton Place,Out Bound,Home,,119,Hollybeny,Brainerd and sonic ,,Personal errands,Bethany ,,,Mccallie and crystal ,,37411,9,35.0201393,-85.23807,9,35.0278771,-85.2626264,4- Hamilton Place,pass,pass,,,,,,
367,4247830921,4- Hamilton Place,In Bound,Home,,5531,Pinelawn ,Brainerd road ,,Store,,12 th ,Market ,,,37411,9,35.0145015,-85.2164999,9,35.04182,-85.30899,4- Hamilton Place,pass,pass,,,,,,
368,4247837375,3- Enterprise South,In Bound,Home,,,Jersey pike ,,,Work,,,Downtown,,,,7,35.0741754,-85.1900612,9,35.0456297,-85.3096801,3- Enterprise South,no_pass,pass,,,,,,
369,4247848329,1- Alton Park,In Bound,Home,,2619,Carr street ,Market and 20th ,,Medical / Hospital,,,,,Erlanger ,37408,9,35.0255279,-85.3133592,9,35.0485516,-85.2895013,1- Alton Park,pass,pass,,,,,,
370,4247854940,1- Alton Park,In Bound,Work,,Krystal ,Broad st ,,,Home,,1244,Grove street ,,,37403,9,35.0191809,-85.3208824,9,35.0434135,-85.318122,1- Alton Park,pass,pass,,,,,,
371,4247857889,1- Alton Park,Out Bound,Work,,,,,,Home,,,,,,37402,,,,,,,1- Alton Park,insufficient_data,insufficient_data,,,,,,
372,4247862981,1- Alton Park,In Bound,Work,,5000,Woodland view,,Chatt convention center ,Home,,5000,Woodland view ,,,37412,9,34.9905006,-85.307521,9,34.9905006,-85.307521,1- Alton Park,pass,pass,,,,,,
373,4247870978,1- Alton Park,Out Bound,School (K-12),,Market ,Market and 6th ,Walmart ,,,,4933,Jeffery lane ,,Home ,37410,9,35.0496808,-85.3095494,9,34.9900181,-85.3061709,1- Alton Park,pass,pass,,,,,,
374,4247878478,1- Alton Park,Out Bound,Home,,30,Tunnel Blvd ,Brainerd and tunnel Blvd ,,Home,,1020,W. 30th street ,W. 30th street and pirola street ,Daughters house ,37411,9,35.02679,-85.247533,9,34.9900181,-85.3061709,1- Alton Park,pass,pass,,,,,,
375,4247881545,1- Alton Park,In Bound,Home,,4912,Angela,,Wheeler homes,Work,,,,,Fed ex ,37410,9,34.9911728,-85.3035734,9,35.0790721,-85.183977,1- Alton Park,pass,pass,,,,,,
376,4247885502,1- Alton Park,In Bound,Home,,210,Broad st ,,,Work,,161,Pepels,,,37404,9,35.0539003,-85.3103237,1,35.0456297,-85.3096801,1- Alton Park,pass,no_pass,,,,,,
377,4247892784,1- Alton Park,In Bound,Home,,4222,Victory st ,Talley and victory ,,Home,,,Market street store ,Walmart,,37411,9,35.028867,-85.2324797,9,35.0505008,-85.3098734,1- Alton Park,pass,pass,,,,,,
378,4247896693,1- Alton Park,In Bound,Home,,635-6532,Kesha Nicholson ,,,Social / restaurant,,635-6532,Kesha Nicholson,,,,1,35.0456297,-85.3096801,1,35.0456297,-85.3096801,1- Alton Park,no_pass,no_pass,,,,,,
379,4247915265,1- Alton Park,Out Bound,Home,,,Woodland view and Jeffrey ,,,Work,,,Glenwood ,,Memorial plaza ,37410,9,34.98932,-85.30549,9,35.0400996,-85.2606059,1- Alton Park,pass,pass,,,,,,
380,4247917183,1- Alton Park,Out Bound,Home,,3806,Dorris,W 30th  and e 30th ,,Home,,,,,,37410,9,35.0043355,-85.3094009,,,,1- Alton Park,pass,insufficient_data,,,,,,
381,4247919226,1- Alton Park,Out Bound,Work,,4th ,Market ,,,Home,,,E. Brainerd,,,37422,9,35.0522576,-85.3096174,5,35.0153686,-85.1119641,1- Alton Park,pass,no_pass,,,,,,
382,4247921315,1- Alton Park,Out Bound,Work,,,E Brainerd Rd ,,,Home,,,12th Street Court ,,,37412,4,35.0022305,-85.1274148,9,35.0430706,-85.3168047,1- Alton Park,no_pass,pass,,,,,,
383,4247923973,1- Alton Park,Out Bound,Work,,,,Market and 4th St ,,Home,,1300,Reserve way ,Reserve way and east Brainerd Rd ,,37421,9,35.0527166,-85.3094859,9,35.0430706,-85.3168047,1- Alton Park,pass,pass,,,,,,
384,4247925791,1- Alton Park,Out Bound,Work,,12th,Market ,,,Home,,,East lake ,,,,9,35.04182,-85.30899,7,35.0053103,-85.2851801,1- Alton Park,pass,no_pass,,,,,,
385,4247927597,1- Alton Park,Out Bound,Work,,4th ,Market ,,,Home,,,3rd Street ,,CC ,37410,9,35.0522576,-85.3096174,9,35.0485516,-85.2895013,1- Alton Park,pass,pass,,,,,,
386,4247929974,1- Alton Park,In Bound,Home,,19106,Walker Ave ,Citico and orchardknob,,Work,,3535,Broad st ,Broad and tn ave ,,37406,8,35.0450597,-85.2690083,9,35.0485516,-85.2895013,1- Alton Park,pass,pass,,,,,,
387,4247932733,1- Alton Park,Out Bound,Work,,,Broad st and 33 Rd ,33 Rd and broad ,Mikes smoke house ,Home,,701 east 4th St ,,48th and workman ,,37410,9,35.0195856,-85.3216633,7,34.9875508,-85.2945986,1- Alton Park,pass,no_pass,,,,,,
388,4247934473,1- Alton Park,Out Bound,Work,,4900,Wilson ,,,Work,,,,,McDonald's by 200 ,37410,9,35.172681,-85.298367,9,35.0467725,-85.2869882,1- Alton Park,pass,pass,,,,,,
389,4247936900,1- Alton Park,Out Bound,Home,,701,E 5 1st street ,,,Work,,,,Gunbarrel and shallowford ,,37410,9,35.0556928,-85.3096744,9,35.0403135,-85.1499569,1- Alton Park,pass,pass,,,,,,
390,4247938824,1- Alton Park,Out Bound,Home,,1039,North orchardknob,,,Work,,Same ,Same ,,"Home, work, town ",37406,9,35.0500146,-85.2672955,9,35.0160811,-85.2033267,1- Alton Park,pass,pass,,,,,,
391,4247940576,1- Alton Park,In Bound,Home,,2505,Market st ,,,Medical / Hospital,,1000,3rd Street ,,CC ,37417,9,35.026213,-85.3116426,9,35.0472644,-85.2905001,1- Alton Park,pass,pass,,,,,,
392,4247942886,1- Alton Park,Out Bound,Home,,3718,Fagan st ,49 st and Fagan st,"Walmart, subway,  citi trends ",Home,,,Greenway View Drive,Brainerd ,,37410,9,35.0057747,-85.3077448,9,35.0472644,-85.2905001,1- Alton Park,pass,pass,,,,,,
393,4240491760,3- Enterprise South,In Bound,Home,,7200,Discovery Dr,Vin Dr & freeway,,Other,Downtown,,Market st,4th & Market,,37410,9,35.068898,-85.1416409,9,35.0522576,-85.3096174,3- Enterprise South,pass,pass,,,,,,
394,4240505125,16- Northgate,In Bound,Home,,,,,Hixson Pike,Personal errands,,,,,Hamilton Place Mall,37343,3,35.1591833,-85.1941502,9,35.0336912,-85.1585253,16- Northgate,no_pass,pass,,,,,,
395,4240516932,16- Northgate,In Bound,Home,,,,,Cambridge Creek Apts,Work,,,,,McDonald's on Gunbarrel Rd,37415,9,35.1117319,-85.2699178,9,35.0316776,-85.155323,16- Northgate,pass,pass,,,,,,
396,4240528300,16- Northgate,In Bound,Home,,,Northcross,,Homeaway,Personal errands,court,,Market st,,,37343,9,35.1394444,-85.2422222,6,35.0413955,-85.3085032,16- Northgate,pass,no_pass,,,,,,
397,4240539701,4- Hamilton Place,Out Bound,Home,,7609,Holiday Hills Dr,Jersey Pike & 153,,Home,,,E 3rd St,,,,9,35.0752849,-85.1690186,6,35.0454835,-85.2843147,4- Hamilton Place,pass,no_pass,,,,,,
398,4240550176,9- East Lake,Out Bound,Home,,,,,East Lake Courts,Work,,,,,Family Dollar,37407,9,35.0127833,-85.2821192,9,35.0505008,-85.3098734,9- East Lake,pass,pass,,,,,,
399,4240559716,9- East Lake,In Bound,Home,,,E 27th,,,Other,,,Market st,,,37407,7,35.0142145,-85.2882772,6,35.0413955,-85.3085032,9- East Lake,no_pass,no_pass,,,,,,
400,4240566989,9- East Lake,In Bound,Home,,,,,East Lake Courts,Personal errands,courthouse,,,,Downtown,37407,9,35.0127833,-85.2821192,9,35.0456297,-85.3096801,9- East Lake,pass,pass,,,,,,
401,4240575262,9- East Lake,In Bound,Home,,4100,12th Ave,42nd St & Dodds Ave,,Other,Downtown,,Broad St,,Public Library,37407,9,34.9948521,-85.2829373,9,35.0443542,-85.3105651,9- East Lake,pass,pass,,,,,,
402,4240585550,1- Alton Park,Out Bound,Home,,5216,Woodland View Cir,Angela Dr & Woodland View Cir,,Medical / Hospital,,313,Manufacturers Rd,Cherokee & Manufacturers Rd,,37410,9,34.9898111,-85.3035464,9,35.0628444,-85.3144124,1- Alton Park,pass,pass,,,,,,
403,4240593300,1- Alton Park,Out Bound,Home,,,38th St,,,Work,,,,,Hamilton Place Mall,37410,7,35.0085549,-85.3188073,9,35.0336912,-85.1585253,1- Alton Park,no_pass,pass,,,,,,
404,4240603885,1- Alton Park,Out Bound,Home,,16,Fair Oak Place,,40th ,Home,,,Hixson,153,,37409,9,35.008706,-85.3303607,9,35.0336912,-85.1585253,1- Alton Park,pass,pass,,,,,,
405,4240612540,1- Alton Park,Out Bound,Work,,3600,McCallie Ave,McCallie & Willow,Parkridge Medical Center,Home,,1808,Cowart St,20th & Market,Home,37408,9,35.0349467,-85.2675694,9,35.0342013,-85.3117234,1- Alton Park,pass,pass,,,,,,
406,4240621474,1- Alton Park,Out Bound,Personal errands,,,,Brainerd & Tuxedo,Sunny Nails & Spa,Home,,264,Water St,38th St & Water St,,37410,9,35.0109616,-85.2223568,9,35.0071252,-85.3132582,1- Alton Park,pass,pass,,,,,,
407,4240631844,15- St Elmo,In Bound,Home,,617,52nd St,51st & 52nd,51st & 52nd,Home,,617,52nd St,51st & 52nd,,37410,9,34.9892233,-85.310653,9,34.9892233,-85.310653,15- St Elmo,pass,pass,,,,,,
408,4240639352,1- Alton Park,Out Bound,Work,,,Amnicola,,,Home,,5291,Usher Dr,,,,6,35.0847888,-85.262224,9,34.9885965,-85.3169737,1- Alton Park,no_pass,pass,,,,,,
409,4240646684,2- North Chattanooga,Out Bound,Home,,1211,Sholar Ave,Wilcox & Holzclaw,Bus Station,Work,,,Brainerd Rd,Brainerd & Moore,BP Gas Station,37406,9,35.0321081,-85.1939942,9,35.0124005,-85.2278154,2- North Chattanooga,pass,pass,,,,,,
410,4240654301,2- North Chattanooga,Out Bound,Social/restaurant,,1545,Mt View Apts,,,Home,,,,,,,9,34.9968258,-85.2519912,,,,2- North Chattanooga,pass,insufficient_data,,,,,,
411,4240661673,2- North Chattanooga,Out Bound,Home,Alton Park,3806,Dorris St Apt A,E 38th,,Other,Downtown Bridge,,Manufacturers Rd,,,37410,9,35.0043355,-85.3094009,7,35.0607453,-85.3205036,2- North Chattanooga,pass,no_pass,,,,,,
412,4240673626,2- North Chattanooga,Out Bound,Home,,126,Alden Ave,Dayton & Signal Mtn,,Personal errands,,126,Alden Ave,Dayton Blvd & Signal Mtn Rd,,37405,9,35.0871599,-85.3178827,9,35.0871599,-85.3178827,2- North Chattanooga,pass,pass,,,,,,
413,4240681063,2- North Chattanooga,Out Bound,Medical/hospital,,,,,,Home,,,,,,37412,,,,,,,2- North Chattanooga,insufficient_data,insufficient_data,,,,,,
414,4240689635,2- North Chattanooga,Out Bound,Social/restaurant,,,Market St,Market & 11th,Pickle Barrel Restaurant,Home,,951,Boynton,Boynton & MLK,Boynton Terrace,37402,9,35.0443729,-85.309195,9,35.0478503,-85.3206087,2- North Chattanooga,pass,pass,,,,,,
415,4240699660,2- North Chattanooga,Out Bound,Store,,,Grover St,Grover & Gateway,College Hills Court,Home,,1100,Gateway Tower,,Gateway Towers,37402,9,35.0429049,-85.3185582,9,35.0454229,-85.3194365,2- North Chattanooga,pass,pass,,,,,,
416,4240709130,2- North Chattanooga,Out Bound,Home,,1329,Cypress,,Walmart,Store,,,,,Walmart,37402,,,,9,35.0301589,-85.1527709,2- North Chattanooga,insufficient_data,pass,1329 Cypress St Ct,35.04180609,-85.31822368,,,
417,4240717169,2- North Chattanooga,Out Bound,Home,,1330,Cypress St,,,School (K-12),,,,,,37404,9,35.0422653,-85.3184139,,,,2- North Chattanooga,pass,insufficient_data,,,,,,
418,4240726677,2- North Chattanooga,Out Bound,Home,,600,W 14th St,Main St & Freeway Court,College Hills Courts,Personal errands,,,Greenway Dr,,Walmart,37402,9,35.0429049,-85.3185582,9,35.0085358,-85.2051089,2- North Chattanooga,pass,pass,,,,,,
419,4240738842,2- North Chattanooga,Out Bound,Home,,129,Boynton Dr,,,Store,,,,,Walmart,37402,8,35.0456509,-85.320003,9,35.0301589,-85.1527709,2- North Chattanooga,pass,pass,,,,,,
420,4240757017,2- North Chattanooga,Out Bound,Store,,720,W 12th St,,,Home,,720,W 12th St,,,37402,9,35.0443905,-85.316356,9,35.0443905,-85.316356,2- North Chattanooga,pass,pass,,,,,,
421,4240766736,2- North Chattanooga,Out Bound,Home,,951,Boynton Dr,MLK,,Store,,,4th & Market,3rd & Market,,37402,9,35.0478503,-85.3206087,9,35.0522576,-85.3096174,2- North Chattanooga,pass,pass,,,,,,
422,4240775026,2- North Chattanooga,Out Bound,Work,,1100,Grove St,12th St & Grove,,Personal errands,,1700,Vance Ave,,,37406,9,35.0461855,-85.3167683,9,35.0317534,-85.2800679,2- North Chattanooga,pass,pass,,,,,,
423,4240787062,2- North Chattanooga,Out Bound,Work,,,,,Walmart,Store,,1201,Boynton,,,37411,9,35.0301589,-85.1527709,9,35.0452594,-85.3202049,2- North Chattanooga,pass,pass,,,,,,
424,4240794268,2- North Chattanooga,Out Bound,Work,,,,,,Medical / Hospital,,,,,Downtown Aquarium,37402,,,,9,35.0558229,-85.3110646,2- North Chattanooga,insufficient_data,pass,,,,,,
425,4240801137,2- North Chattanooga,Out Bound,Home,,na,na,na,na,Social / restaurant,,na,na,na,na,37403,9,35.0794124,-85.2720554,9,35.0558229,-85.3110646,2- North Chattanooga,pass,pass,,,,,,
426,4240811110,2- North Chattanooga,Out Bound,Personal errands,,,Spears Ave,,,Home,,1205,Poplar St Ct,Poplar & W 12th,,37402,7,35.0718665,-85.3098066,9,35.042968,-85.3162559,2- North Chattanooga,no_pass,pass,,,,,,
427,4240819283,2- North Chattanooga,Out Bound,Home,,211,38th St,W 8th & 38th,,Home,,,38th St,,,,9,35.0061933,-85.3117612,7,35.0093365,-85.3209599,2- North Chattanooga,pass,no_pass,,,,,,
428,4240826971,10- East Chattanooga,Out Bound,Store,,,Market St,,,Home,,2109,Robers,,,37404,6,35.0413955,-85.3085032,9,35.042802,-85.2736025,10- East Chattanooga,no_pass,pass,,,,,,
429,4240836240,1- Alton Park,In Bound,Home,,41,Central,38th & Central,,Work,,14,Market,Market & Main,,37410,7,35.0085549,-85.3188073,9,35.0605028,-85.3089221,1- Alton Park,no_pass,pass,E 38th St & Central Ave,35.00545797,-85.31063877,,,
430,4240844245,1- Alton Park,In Bound,Home,,,20th ,,,Personal errands,,600,N Holtzclaw,,,37401,9,35.0315986,-85.3097444,9,35.0463759,-85.278027,1- Alton Park,pass,pass,,,,,,
431,4240853326,10- East Chattanooga,Out Bound,Home,,,4th St,4th St & Market St,,Work,,,Discovery Dr,Discovery Dr & Bonny Oaks,Amazon Fulfillment Warehouse,37406,9,35.0522576,-85.3096174,9,35.068898,-85.1416409,10- East Chattanooga,pass,pass,,,,,,
432,4240863265,10- East Chattanooga,In Bound,Home,,,,4th & Glenwood Dr,,Store,,,,8th & Market St,,37404,9,35.0360008,-85.2615375,9,35.0471177,-85.3094835,10- East Chattanooga,pass,pass,,,,,,
433,4240873279,10- East Chattanooga,Out Bound,Home,,,Blackford,Blackford & Orchard Knob,Avondale,Other,Visit family/friends,,N Chaimberland,Wilcox & N Chaimberland,Glennwood,37404,8,35.0414929,-85.2683145,9,35.0494325,-85.2577719,10- East Chattanooga,pass,pass,,,,,,
434,4240887146,10- East Chattanooga,Out Bound,Home,,2103,Daisy St,Dodds & Daisy,,,,,,,,,9,35.0668905,-85.2543584,,,,10- East Chattanooga,pass,insufficient_data,,,,,,
435,4240896545,10- East Chattanooga,In Bound,Work,,2409,Awtry St,Glass & Stuart,Stuart/Glass,Home,,2112,Sharp,3rd & Orchard,3rd & Orchard Knob,37404,9,35.0649993,-85.2476865,9,35.0408733,-85.2719772,10- East Chattanooga,pass,pass,,,,,,
436,4240903466,10- East Chattanooga,Out Bound,Home,,1100,Gateway Ave,,,Personal errands,,,,,Food City St Elmo,37402,9,35.045308,-85.3192356,9,35.0096995,-85.3259481,10- East Chattanooga,pass,pass,,,,,,
437,4240911867,10- East Chattanooga,In Bound,Medical/hospital,,721,Glenwood,,Memorial Hospital,Store,,,Hixson,Hwy 153 & Hixson,Kmart,37405,9,35.0414352,-85.2603854,9,35.1357799,-85.2441155,10- East Chattanooga,pass,pass,,,,,,
438,4240921538,10- East Chattanooga,In Bound,Home,,859,Chamberlain Ave,Gleenwood & Citco,,School (K-12),,,,,,37406,9,35.0448635,-85.2606656,,,,10- East Chattanooga,pass,insufficient_data,,,,,,
439,4240928920,10- East Chattanooga,In Bound,Home,,3573,Dodson,Stuart & Dodson,,Work,,1300,Market,Main & Market,,37406,9,35.0799702,-85.2450841,9,35.0393452,-85.3075313,10- East Chattanooga,pass,pass,,,,,,
440,4240990171,16- Northgate,In Bound,Home,,,Hixson,,,School (K-12),,,cltc,,,37406,3,35.137265,-85.2368219,9,35.028504,-85.24288,16- Northgate,no_pass,pass,,,,,,
441,4240997737,16- Northgate,In Bound,Work,,,,,McDonalds 153,Home,,,,,,37406,9,35.1387851,-85.2471585,,,,16- Northgate,pass,insufficient_data,,,,,,
442,4241004707,16- Northgate,In Bound,Home,,,Green Daleway,,,,,,,,,,9,35.1287089,-85.2444403,,,,16- Northgate,pass,insufficient_data,,,,,,
443,4241013040,10- East Chattanooga,Out Bound,Home,,,,,,Work,,,,,,37411,,,,,,,10- East Chattanooga,insufficient_data,insufficient_data,,,,,,
444,4241025446,10- East Chattanooga,Out Bound,Work,,2,Northshore,4th & Market,,Home,,2300 Wilson St,Wilson & Dodson,,,37406,9,35.0631285,-85.3144558,9,35.0493589,-85.2609284,10- East Chattanooga,pass,pass,,,,,,
445,4241032728,10- East Chattanooga,Out Bound,Home,,4517 Rogers Rd,Rogers & Kemp Dr,,,Home,,,Arlington,,,37411,9,35.0251262,-85.2279492,7,35.0486455,-85.2604385,10- East Chattanooga,pass,no_pass,,,,,,
446,4241038528,10- East Chattanooga,In Bound,Recreation,,,,,,Home,,,,,,,,,,,,,10- East Chattanooga,insufficient_data,insufficient_data,,,,,,
447,4241046338,10- East Chattanooga,Out Bound,Social/restaurant,,,Broad St,,,Other,Riding,,Market St,,,37402,6,35.032616,-85.3140632,6,35.0413955,-85.3085032,10- East Chattanooga,no_pass,no_pass,,,,,,
448,4241053067,10- East Chattanooga,Out Bound,Work,,1500,Highland Park,E Main & Highland Park,,Work,,,,,Hamilton Place Mall,37406,9,35.0282066,-85.2860902,9,35.0336912,-85.1585253,10- East Chattanooga,pass,pass,,,,,,
449,4241060286,10- East Chattanooga,Out Bound,Work,,,Gunbarrel,Shallowford & Gunbarrel,,Home,,2200,Daisy St,Dodson & Daisy,,37406,9,35.0403135,-85.1499569,9,35.0662117,-85.2534274,10- East Chattanooga,pass,pass,,,,,,
450,4241066435,5- North Brainerd,In Bound,Work,,800,Woodmore Ln,,,Home,,224,W 37th St,,,37410,9,35.031777,-85.2262299,9,35.0072509,-85.3115976,5- North Brainerd,pass,pass,,,,,,
451,4241073113,5- North Brainerd,In Bound,Work,,3600,Brainerd Rd,,,Home,,503,Woodvale Ave,Colonial & Montview,,37411,9,35.0236605,-85.2464329,9,35.0201653,-85.2273424,5- North Brainerd,pass,pass,,,,,,
452,4241082293,5- North Brainerd,In Bound,Home,,4299,Victory,Talley & Victory,,Home,,4299 Victory,Talley & Victory,,,37411,9,35.0287004,-85.2314359,9,35.029415,-85.2337766,5- North Brainerd,pass,pass,,,,,,
453,4241091433,5- North Brainerd,In Bound,Work,,1609,Agnes,Pinoak & Wilcox,,Home,,747,E Henderson Dr,Midland & Henderson,,37411,9,35.0472089,-85.2347221,9,35.0292856,-85.2256433,5- North Brainerd,pass,pass,,,,,,
454,4241098295,5- North Brainerd,In Bound,Home,,4911,Marylin Ln,Moore & Marylin,,Work,,,Lee Hwy,,,37411,9,35.0243537,-85.2203031,1,35.0175697,-85.2061066,5- North Brainerd,pass,no_pass,,,,,,
455,4241104983,5- North Brainerd,In Bound,Medical/hospital,,,3rd St,,Erlanger Hospital,Home,,4801,Tomahawk Trail,Tomahawk & Woodvale,,37411,9,35.0485516,-85.2895013,9,35.0254301,-85.223661,5- North Brainerd,pass,pass,,,,,,
456,4241125338,15- St Elmo,Out Bound,Social/restaurant,,,,,,Home,,,,,,37410,,,,,,,15- St Elmo,insufficient_data,insufficient_data,,,,,,
457,4241137432,9- East Lake,Out Bound,Store,,,,12th & Market,Family Dollar,Home,,3014,12th Ave,Dodds & 31st,,37407,9,35.0189773,-85.2799669,9,35.0057155,-85.2773601,9- East Lake,pass,pass,,,,,,
458,4241144012,19- Cromwell Road,Out Bound,Work,,,MLK,,Urban League,Home,,,,Lee Hwy & Shallowford ,,37412,9,35.042107,-85.2993083,9,35.0449042,-85.1624371,19- Cromwell Road,pass,pass,,,,,,
459,4241152825,16- Northgate,In Bound,Work,,600,Market,,,Home,,621,Tremont,,,37405,9,35.0494148,-85.3088556,9,35.0684089,-85.2982759,16- Northgate,pass,pass,,,,,,
460,4241163009,4- Hamilton Place,In Bound,Home,,,,,,Home,,70,Germantown Rd,,,37411,,,,9,35.0252283,-85.2458713,4- Hamilton Place,insufficient_data,pass,,,,,,
461,4241170536,4- Hamilton Place,Out Bound,Work,,,,,,Medical / Hospital,,,,,,,,,,,,,4- Hamilton Place,insufficient_data,insufficient_data,,,,,,
462,4241181260,4- Hamilton Place,Out Bound,Work,,939,3rd St,3rd st & central,Erlanger,Home,,7822,Dunwoody Dr,Pinewood & Jenkins Rd,,37421,9,35.0485516,-85.2895013,9,35.0426038,-85.1306962,4- Hamilton Place,pass,pass,,,,,,
463,4241195430,15- St Elmo,Out Bound,Home,,,W 56th ,St Elmo & W 56th,Home,Work,,,Broad,,Mellow Mushroom,37409,8,34.9868156,-85.3325637,9,35.0542261,-85.3110919,15- St Elmo,pass,pass,,,,,,
464,4241217106,15- St Elmo,Out Bound,Home,,4706,St Elmo Ave,46th & St Elmo,Home,Work,,,Broad St,,Papa John's,37409,9,34.9962638,-85.3295531,9,35.0248098,-85.3176294,15- St Elmo,pass,pass,,,,,,
465,4241223277,15- St Elmo,Out Bound,Home,,,,,,Home,,,,,,37409,,,,,,,15- St Elmo,insufficient_data,insufficient_data,,,,,,
466,4241232050,15- St Elmo,Out Bound,Work,,,,,Republic Parking,Home,,,,,Home,37409,9,35.0504912,-85.3105112,9,35.0029793,-85.2254283,15- St Elmo,pass,pass,,,,,,
467,4241239243,15- St Elmo,Out Bound,Work,,,,Downtown,,Home,,4424,Seneca Ave,,,37409,9,35.0456297,-85.3096801,9,34.9999668,-85.3264439,15- St Elmo,pass,pass,,,,,,
468,4241247870,15- St Elmo,Out Bound,University / College,,,,,Chattanooga State,Home,,,56th ,56th & St. Elmo Ave,Home,37409,9,35.1003674,-85.2375518,9,34.9861296,-85.3311242,15- St Elmo,pass,pass,,,,,,
469,4241260621,15- St Elmo,Out Bound,University / College,,,25th ST,Broad St & 25th St,Raceway,Home,,5410,Alabama Ave,Alabama Ave & 55th St,,37409,9,35.0278966,-85.3160016,9,34.9889894,-85.3325006,15- St Elmo,pass,pass,,,,,,
470,4241267681,15- St Elmo,Out Bound,Work,,629,Market St,7th St & Market St,Chicken Salad Chick,Other,Visit family/friends,1410,W 46th St,W 46th St & St Elmo Ave,,37410,9,35.0484993,-85.3097583,9,34.9982612,-85.3284427,15- St Elmo,pass,pass,,,,,,
471,4241274608,15- St Elmo,Out Bound,Work,,832,Georgia Ave,,,Home,,,,44th & St Elmo,,37409,9,35.0459881,-85.3079265,7,35.001723,-85.3275956,15- St Elmo,pass,no_pass,,,,,,
472,4241282259,15- St Elmo,Out Bound,Home,,1020,W 37th St,W 37th & Pirola,Calvin Donaldson School,Other,Visit family/friends,4625,St Elmo Ave,47th & St Elmo,St Elmo Apts,37410,9,35.0108513,-85.318712,9,34.9970317,-85.3299771,15- St Elmo,pass,pass,,,,,,
473,4241294466,15- St Elmo,Out Bound,Work,,3108,Broad St,,,Home,,2439,5th Ave,4th & Foust,,37407,9,35.0203714,-85.3202378,9,35.015335,-85.280243,15- St Elmo,pass,pass,,,,,,
474,4241302045,15- St Elmo,Out Bound,Work,,31,Broad St,,,Work,,,W 13th St Ct,,,37402,9,35.0547221,-85.3110486,9,35.0424508,-85.3170837,15- St Elmo,pass,pass,,,,,,
475,4241310515,15- St Elmo,Out Bound,Work,,3100,Broad St,Broad & 33rd,Broad & 33rd,Home,,500,W MLK Blvd,,W MLK Blvd & 12th ST,37402,9,35.020736,-85.320217,9,35.0477706,-85.3190943,15- St Elmo,pass,pass,,,,,,
476,4241316956,15- St Elmo,Out Bound,Work,,,Broad St,,,Other,,,St Elmo,I-24,,37409,6,35.032616,-85.3140632,9,35.0477706,-85.3190943,15- St Elmo,no_pass,pass,,,,,,
477,4241324768,15- St Elmo,Out Bound,Work,,,W 13th,Broad & W 13th,Urban Stack,Home,,4305,Alabama Ave,Alabama & 43rd,Home,37409,9,35.0392547,-85.3085618,9,35.0028227,-85.3303607,15- St Elmo,pass,pass,,,,,,
478,4241332696,15- St Elmo,Out Bound,University / College,,,,,Chattanooga State Community College,Home,,43,St Elmo Ave,,,37409,9,35.1003674,-85.2375518,7,35.0033272,-85.3289895,15- St Elmo,pass,no_pass,,,,,,
479,4241338866,15- St Elmo,Out Bound,Personal errands,,,Downtown,,,Home,,,Hamilton Place,,,37409,9,35.0456297,-85.3096801,9,35.0336912,-85.1585253,15- St Elmo,pass,pass,,,,,,
480,4241345167,15- St Elmo,Out Bound,Home,,5616,Orchard Lane,56th,,Home,,5616,Orchard Ln,,,37409,9,34.9859505,-85.3346166,1,35.0456297,-85.3096801,15- St Elmo,pass,no_pass,,,,,,
481,4241351408,15- St Elmo,Out Bound,Store,,3800,Tennessee Ave,,,Home,,4313,Tennessee Ave,,,37409,9,35.0099521,-85.3258085,9,35.0021652,-85.3277765,15- St Elmo,pass,pass,,,,,,
482,4241358438,15- St Elmo,Out Bound,University / College,,,Amnicola Hwy,,Chatt State,Home,,,43rd & St Elmo Ave,,,37409,9,35.1003674,-85.2375518,9,35.0038017,-85.3295733,15- St Elmo,pass,pass,,,,,,
483,4241365418,15- St Elmo,Out Bound,Work,,,,,Chicken House Downtown,Home,,,,,,37409,9,35.0376434,-85.301361,,,,15- St Elmo,pass,insufficient_data,,,,,,
484,4241370728,15- St Elmo,Out Bound,Work,,,,Downtown,37409,Home,,,,,,37410,9,35.0456297,-85.3096801,,,,15- St Elmo,pass,insufficient_data,,,,,,
485,4241376202,15- St Elmo,Out Bound,Work,,,,,,Work,,,,,,37409,,,,,,,15- St Elmo,insufficient_data,insufficient_data,,,,,,
486,4241381421,15- St Elmo,Out Bound,Work,,,Broad St,,Krystal's,Home,,,,,,37408,9,35.0191809,-85.3208824,,,,15- St Elmo,pass,insufficient_data,,,,,,
487,4241387678,15- St Elmo,Out Bound,Personal errands,,,St Elmo Ave,,,Personal errands,,,,,,37409,7,35.0033272,-85.3289895,,,,15- St Elmo,no_pass,insufficient_data,,,,,,
488,4241394360,4- Hamilton Place,In Bound,Store,,,E 23rd,,Chatt Inn,Home,,,E 23rd,,Chatt Inn,,9,35.0180118,-85.2825358,9,35.0180118,-85.2825358,4- Hamilton Place,pass,pass,,,,,,
489,4241404460,4- Hamilton Place,Out Bound,Home,,1201,Boynton Dr,MLK,,Work,,,,,Walmart Brainerd,37402,9,35.0452594,-85.3202049,9,35.0085358,-85.2051089,4- Hamilton Place,pass,pass,,,,,,
490,4241412317,4- Hamilton Place,In Bound,Home,,,Brainerd Rd,Germantown Rd,Rite Aid,Work,,,MLK Blvd,Golden Gateway,Jaceey Towers,37411,9,35.0248197,-85.2456763,9,35.0085358,-85.2051089,4- Hamilton Place,pass,pass,,,,,,
491,4241419108,14- Mocs Express,In Bound,University / College,,,,,Decosimo Bus Stop,University / College,,,,,Hunter Hall,,9,35.0321081,-85.1939942,9,35.0455528,-85.2988776,14- Mocs Express,pass,pass,,,,,,
492,4241424774,14- Mocs Express,Out Bound,Other,Parking lot,,,,Engel Stadium,University / College,,,,,UTC,37363,9,35.0453668,-85.2863116,9,35.0458509,-85.2953072,14- Mocs Express,pass,pass,,,,,,
493,4242354001,14- Mocs Express,Out Bound,School (K-12),,,McCallie,,UTC,University / College,,,CSI Pharm,,Riverside Dr,37421,9,35.044236,-85.2979951,9,35.0568024,-85.280169,14- Mocs Express,pass,pass,,,,,,
494,4243119615,14- Mocs Express,Out Bound,University / College,,,University Center,,,Home,,,Phelps Street,,,,9,35.047943,-85.2982972,8,34.9937474,-85.265199,14- Mocs Express,pass,pass,,,,,,
495,4243128808,14- Mocs Express,Out Bound,Home,,818,University Street,,Stophel,Other,Arc,,,,,37403,9,35.0438466,-85.3004915,,,,14- Mocs Express,pass,insufficient_data,,,,601 E 5th St,35.04961977,-85.29980974
496,4243136449,14- Mocs Express,Out Bound,Home,,818,University Street,McCallie & Douglas,Stophel Apartments,University / College,,,,,University Center,37403,9,35.0438466,-85.3004915,9,35.047943,-85.2982972,14- Mocs Express,pass,pass,,,,,,
497,4243143433,14- Mocs Express,Out Bound,University / College,,,3rd Street,,University Center,Home,,,,,Engel Stadium,37405,9,35.047943,-85.2982972,9,35.0453668,-85.2863116,14- Mocs Express,pass,pass,,,,,,
498,,14- Mocs Express,In Bound,University / College,,,E. 5th,Palmetto & E 5th,University Center,,Parking lot,,,,Engle Stadium UTC lot,37421,,,,,,,14- Mocs Express,insufficient_data,insufficient_data,642 E 5th St,35.05097447,-85.30379494,446 O Neal St,35.04522382,-85.28750788
499,4243164955,14- Mocs Express,Out Bound,University / College,,,,,UTC Library,Home,,5100,Roper Street,,,37412,9,35.0474378,-85.300106,9,34.9864983,-85.225336,14- Mocs Express,pass,pass,,,,,,
500,4243172366,14- Mocs Express,Out Bound,University / College,,818,University,,,University / College,,,,,,,9,35.0438563,-85.3004842,,,,14- Mocs Express,pass,insufficient_data,,,,,,
501,4243178316,14- Mocs Express,Out Bound,University / College,,,,,,Home,,8,University Street,,,,,,,9,35.0438342,-85.3012414,14- Mocs Express,insufficient_data,pass,,,,,,
502,4243185405,14- Mocs Express,Out Bound,University / College,,,McCallie,,,University / College,,,,,Holt Hall,,9,35.0278771,-85.2626264,9,35.0476475,-85.2965706,14- Mocs Express,pass,pass,,,,,,
503,4243193178,14- Mocs Express,Out Bound,University / College,,818,University Street,University Street & East 6th,,University / College,,,,,,37403,9,35.0438563,-85.3004842,,,,14- Mocs Express,pass,insufficient_data,,,,,,
504,4243200145,14- Mocs Express,Out Bound,University / College,,,,,UTC,Home,,,,,Engel Stadium,37341,9,35.0458509,-85.2953072,9,35.0453668,-85.2863116,14- Mocs Express,pass,pass,,,,,,
505,4243206920,14- Mocs Express,In Bound,Personal errands,,,,,,Home,,,Salvation Army,,,37403,,,,9,35.0432631,-85.2954858,14- Mocs Express,insufficient_data,pass,,,,,,
506,4243214827,14- Mocs Express,In Bound,Home,,1110 E 5th Street,,,,University / College,,,McCallie Ave,,,,,,,6,35.0379648,-85.2802463,14- Mocs Express,insufficient_data,no_pass,1110 E 5th St,35.0447971,-85.28845435,,,
507,4243221116,14- Mocs Express,In Bound,University / College,,,,,Engel Stadium,Home,,,,,,37363,9,35.0453668,-85.2863116,,,,14- Mocs Express,pass,insufficient_data,,,,,,
508,4243230353,14- Mocs Express,In Bound,University / College,,,,,University Center,Other,Parking lot,,,,Engel Stadium,37421,9,35.047943,-85.2982972,9,35.0453668,-85.2863116,14- Mocs Express,pass,pass,,,,,,
509,4243240312,14- Mocs Express,In Bound,University / College,,,O'Neal,E 3rd & O'Neal,Engel Stadium,Other,Parking lot,,O'Neal,E 3rd,Engel Stadium,37415,9,35.0453668,-85.2863116,9,35.0453668,-85.2863116,14- Mocs Express,pass,pass,,,,,,
